$GPGGA,043641.376,5608.763,N,09257.736,E,1,12,1.0,0.0,M,0.0,M,,*6A
$GPGSA,A,3,01,02,03,04,05,06,07,08,09,10,11,12,1.0,1.0,1.0*30
$GPRMC,043641.376,A,5608.763,N,09257.736,E,019.4,028.1,250620,000.0,W*7A
$GPGGA,043642.376,5608.768,N,09257.739,E,1,12,1.0,0.0,M,0.0,M,,*6D
$GPGSA,A,3,01,02,03,04,05,06,07,08,09,10,11,12,1.0,1.0,1.0*30
$GPRMC,043642.376,A,5608.768,N,09257.739,E,019.4,028.1,250620,000.0,W*7D
$GPGGA,043643.376,5608.773,N,09257.742,E,1,12,1.0,0.0,M,0.0,M,,*6A
$GPGSA,A,3,01,02,03,04,05,06,07,08,09,10,11,12,1.0,1.0,1.0*30
$GPRMC,043643.376,A,5608.773,N,09257.742,E,019.4,028.1,250620,000.0,W*7A
$GPGGA,043644.376,5608.779,N,09257.745,E,1,12,1.0,0.0,M,0.0,M,,*60
$GPGSA,A,3,01,02,03,04,05,06,07,08,09,10,11,12,1.0,1.0,1.0*30
$GPRMC,043644.376,A,5608.779,N,09257.745,E,019.4,028.1,250620,000.0,W*70
$GPGGA,043645.376,5608.784,N,09257.748,E,1,12,1.0,0.0,M,0.0,M,,*6E
$GPGSA,A,3,01,02,03,04,05,06,07,08,09,10,11,12,1.0,1.0,1.0*30
$GPRMC,043645.376,A,5608.784,N,09257.748,E,019.4,028.1,250620,000.0,W*7E
$GPGGA,043646.376,5608.789,N,09257.750,E,1,12,1.0,0.0,M,0.0,M,,*69
$GPGSA,A,3,01,02,03,04,05,06,07,08,09,10,11,12,1.0,1.0,1.0*30
$GPRMC,043646.376,A,5608.789,N,09257.750,E,019.4,028.1,250620,000.0,W*79
$GPGGA,043647.376,5608.794,N,09257.753,E,1,12,1.0,0.0,M,0.0,M,,*67
$GPGSA,A,3,01,02,03,04,05,06,07,08,09,10,11,12,1.0,1.0,1.0*30
$GPRMC,043647.376,A,5608.794,N,09257.753,E,019.4,028.1,250620,000.0,W*77
$GPGGA,043648.376,5608.799,N,09257.756,E,1,12,1.0,0.0,M,0.0,M,,*60
$GPGSA,A,3,01,02,03,04,05,06,07,08,09,10,11,12,1.0,1.0,1.0*30
$GPRMC,043648.376,A,5608.799,N,09257.756,E,019.4,028.1,250620,000.0,W*70
$GPGGA,043649.376,5608.804,N,09257.759,E,1,12,1.0,0.0,M,0.0,M,,*65
$GPGSA,A,3,01,02,03,04,05,06,07,08,09,10,11,12,1.0,1.0,1.0*30
$GPRMC,043649.376,A,5608.804,N,09257.759,E,019.4,028.1,250620,000.0,W*75
$GPGGA,043650.376,5608.810,N,09257.761,E,1,12,1.0,0.0,M,0.0,M,,*63
$GPGSA,A,3,01,02,03,04,05,06,07,08,09,10,11,12,1.0,1.0,1.0*30
$GPRMC,043650.376,A,5608.810,N,09257.761,E,019.4,028.1,250620,000.0,W*73
$GPGGA,043651.376,5608.815,N,09257.764,E,1,12,1.0,0.0,M,0.0,M,,*62
$GPGSA,A,3,01,02,03,04,05,06,07,08,09,10,11,12,1.0,1.0,1.0*30
$GPRMC,043651.376,A,5608.815,N,09257.764,E,019.4,028.1,250620,000.0,W*72
$GPGGA,043652.376,5608.820,N,09257.767,E,1,12,1.0,0.0,M,0.0,M,,*64
$GPGSA,A,3,01,02,03,04,05,06,07,08,09,10,11,12,1.0,1.0,1.0*30
$GPRMC,043652.376,A,5608.820,N,09257.767,E,019.4,028.1,250620,000.0,W*74
$GPGGA,043653.376,5608.825,N,09257.770,E,1,12,1.0,0.0,M,0.0,M,,*66
$GPGSA,A,3,01,02,03,04,05,06,07,08,09,10,11,12,1.0,1.0,1.0*30
$GPRMC,043653.376,A,5608.825,N,09257.770,E,019.4,028.1,250620,000.0,W*76
$GPGGA,043654.376,5608.830,N,09257.773,E,1,12,1.0,0.0,M,0.0,M,,*66
$GPGSA,A,3,01,02,03,04,05,06,07,08,09,10,11,12,1.0,1.0,1.0*30
$GPRMC,043654.376,A,5608.830,N,09257.773,E,019.4,028.1,250620,000.0,W*76
$GPGGA,043655.376,5608.835,N,09257.775,E,1,12,1.0,0.0,M,0.0,M,,*64
$GPGSA,A,3,01,02,03,04,05,06,07,08,09,10,11,12,1.0,1.0,1.0*30
$GPRMC,043655.376,A,5608.835,N,09257.775,E,019.4,028.1,250620,000.0,W*74
$GPGGA,043656.376,5608.841,N,09257.778,E,1,12,1.0,0.0,M,0.0,M,,*69
$GPGSA,A,3,01,02,03,04,05,06,07,08,09,10,11,12,1.0,1.0,1.0*30
$GPRMC,043656.376,A,5608.841,N,09257.778,E,019.4,028.1,250620,000.0,W*79
$GPGGA,043657.376,5608.846,N,09257.781,E,1,12,1.0,0.0,M,0.0,M,,*69
$GPGSA,A,3,01,02,03,04,05,06,07,08,09,10,11,12,1.0,1.0,1.0*30
$GPRMC,043657.376,A,5608.846,N,09257.781,E,019.4,028.1,250620,000.0,W*79
$GPGGA,043658.376,5608.851,N,09257.784,E,1,12,1.0,0.0,M,0.0,M,,*65
$GPGSA,A,3,01,02,03,04,05,06,07,08,09,10,11,12,1.0,1.0,1.0*30
$GPRMC,043658.376,A,5608.851,N,09257.784,E,019.4,028.1,250620,000.0,W*75
$GPGGA,043659.376,5608.856,N,09257.786,E,1,12,1.0,0.0,M,0.0,M,,*61
$GPGSA,A,3,01,02,03,04,05,06,07,08,09,10,11,12,1.0,1.0,1.0*30
$GPRMC,043659.376,A,5608.856,N,09257.786,E,019.4,028.1,250620,000.0,W*71
$GPGGA,043700.376,5608.861,N,09257.789,E,1,12,1.0,0.0,M,0.0,M,,*67
$GPGSA,A,3,01,02,03,04,05,06,07,08,09,10,11,12,1.0,1.0,1.0*30
$GPRMC,043700.376,A,5608.861,N,09257.789,E,019.4,028.1,250620,000.0,W*77
$GPGGA,043701.376,5608.866,N,09257.792,E,1,12,1.0,0.0,M,0.0,M,,*6B
$GPGSA,A,3,01,02,03,04,05,06,07,08,09,10,11,12,1.0,1.0,1.0*30
$GPRMC,043701.376,A,5608.866,N,09257.792,E,019.4,028.1,250620,000.0,W*7B
$GPGGA,043702.376,5608.872,N,09257.795,E,1,12,1.0,0.0,M,0.0,M,,*6A
$GPGSA,A,3,01,02,03,04,05,06,07,08,09,10,11,12,1.0,1.0,1.0*30
$GPRMC,043702.376,A,5608.872,N,09257.795,E,019.4,028.1,250620,000.0,W*7A
$GPGGA,043703.376,5608.877,N,09257.798,E,1,12,1.0,0.0,M,0.0,M,,*63
$GPGSA,A,3,01,02,03,04,05,06,07,08,09,10,11,12,1.0,1.0,1.0*30
$GPRMC,043703.376,A,5608.877,N,09257.798,E,019.4,028.1,250620,000.0,W*73
$GPGGA,043704.376,5608.882,N,09257.800,E,1,12,1.0,0.0,M,0.0,M,,*60
$GPGSA,A,3,01,02,03,04,05,06,07,08,09,10,11,12,1.0,1.0,1.0*30
$GPRMC,043704.376,A,5608.882,N,09257.800,E,019.4,028.1,250620,000.0,W*70
$GPGGA,043705.376,5608.887,N,09257.803,E,1,12,1.0,0.0,M,0.0,M,,*67
$GPGSA,A,3,01,02,03,04,05,06,07,08,09,10,11,12,1.0,1.0,1.0*30
$GPRMC,043705.376,A,5608.887,N,09257.803,E,019.4,028.1,250620,000.0,W*77
$GPGGA,043706.376,5608.892,N,09257.806,E,1,12,1.0,0.0,M,0.0,M,,*65
$GPGSA,A,3,01,02,03,04,05,06,07,08,09,10,11,12,1.0,1.0,1.0*30
$GPRMC,043706.376,A,5608.892,N,09257.806,E,019.4,028.1,250620,000.0,W*75
$GPGGA,043707.376,5608.897,N,09257.809,E,1,12,1.0,0.0,M,0.0,M,,*6E
$GPGSA,A,3,01,02,03,04,05,06,07,08,09,10,11,12,1.0,1.0,1.0*30
$GPRMC,043707.376,A,5608.897,N,09257.809,E,019.4,028.1,250620,000.0,W*7E
$GPGGA,043708.376,5608.903,N,09257.811,E,1,12,1.0,0.0,M,0.0,M,,*64
$GPGSA,A,3,01,02,03,04,05,06,07,08,09,10,11,12,1.0,1.0,1.0*30
$GPRMC,043708.376,A,5608.903,N,09257.811,E,019.4,028.1,250620,000.0,W*74
$GPGGA,043709.376,5608.908,N,09257.814,E,1,12,1.0,0.0,M,0.0,M,,*6B
$GPGSA,A,3,01,02,03,04,05,06,07,08,09,10,11,12,1.0,1.0,1.0*30
$GPRMC,043709.376,A,5608.908,N,09257.814,E,019.4,028.1,250620,000.0,W*7B
$GPGGA,043710.376,5608.913,N,09257.817,E,1,12,1.0,0.0,M,0.0,M,,*6A
$GPGSA,A,3,01,02,03,04,05,06,07,08,09,10,11,12,1.0,1.0,1.0*30
$GPRMC,043710.376,A,5608.913,N,09257.817,E,019.4,028.1,250620,000.0,W*7A
$GPGGA,043711.376,5608.918,N,09257.820,E,1,12,1.0,0.0,M,0.0,M,,*64
$GPGSA,A,3,01,02,03,04,05,06,07,08,09,10,11,12,1.0,1.0,1.0*30
$GPRMC,043711.376,A,5608.918,N,09257.820,E,019.4,028.1,250620,000.0,W*74
$GPGGA,043712.376,5608.923,N,09257.823,E,1,12,1.0,0.0,M,0.0,M,,*6C
$GPGSA,A,3,01,02,03,04,05,06,07,08,09,10,11,12,1.0,1.0,1.0*30
$GPRMC,043712.376,A,5608.923,N,09257.823,E,019.4,028.1,250620,000.0,W*7C
$GPGGA,043713.376,5608.929,N,09257.825,E,1,12,1.0,0.0,M,0.0,M,,*61
$GPGSA,A,3,01,02,03,04,05,06,07,08,09,10,11,12,1.0,1.0,1.0*30
$GPRMC,043713.376,A,5608.929,N,09257.825,E,019.4,028.1,250620,000.0,W*71
$GPGGA,043714.376,5608.934,N,09257.828,E,1,12,1.0,0.0,M,0.0,M,,*67
$GPGSA,A,3,01,02,03,04,05,06,07,08,09,10,11,12,1.0,1.0,1.0*30
$GPRMC,043714.376,A,5608.934,N,09257.828,E,019.4,028.1,250620,000.0,W*77
$GPGGA,043715.376,5608.939,N,09257.831,E,1,12,1.0,0.0,M,0.0,M,,*63
$GPGSA,A,3,01,02,03,04,05,06,07,08,09,10,11,12,1.0,1.0,1.0*30
$GPRMC,043715.376,A,5608.939,N,09257.831,E,019.4,028.1,250620,000.0,W*73
$GPGGA,043716.376,5608.944,N,09257.834,E,1,12,1.0,0.0,M,0.0,M,,*6F
$GPGSA,A,3,01,02,03,04,05,06,07,08,09,10,11,12,1.0,1.0,1.0*30
$GPRMC,043716.376,A,5608.944,N,09257.834,E,019.4,028.1,250620,000.0,W*7F
$GPGGA,043717.376,5608.949,N,09257.837,E,1,12,1.0,0.0,M,0.0,M,,*60
$GPGSA,A,3,01,02,03,04,05,06,07,08,09,10,11,12,1.0,1.0,1.0*30
$GPRMC,043717.376,A,5608.949,N,09257.837,E,019.4,028.1,250620,000.0,W*70
$GPGGA,043718.376,5608.954,N,09257.839,E,1,12,1.0,0.0,M,0.0,M,,*6D
$GPGSA,A,3,01,02,03,04,05,06,07,08,09,10,11,12,1.0,1.0,1.0*30
$GPRMC,043718.376,A,5608.954,N,09257.839,E,019.4,028.1,250620,000.0,W*7D
$GPGGA,043719.376,5608.960,N,09257.842,E,1,12,1.0,0.0,M,0.0,M,,*67
$GPGSA,A,3,01,02,03,04,05,06,07,08,09,10,11,12,1.0,1.0,1.0*30
$GPRMC,043719.376,A,5608.960,N,09257.842,E,019.4,028.1,250620,000.0,W*77
$GPGGA,043720.376,5608.965,N,09257.845,E,1,12,1.0,0.0,M,0.0,M,,*6F
$GPGSA,A,3,01,02,03,04,05,06,07,08,09,10,11,12,1.0,1.0,1.0*30
$GPRMC,043720.376,A,5608.965,N,09257.845,E,019.4,028.1,250620,000.0,W*7F
$GPGGA,043721.376,5608.970,N,09257.848,E,1,12,1.0,0.0,M,0.0,M,,*67
$GPGSA,A,3,01,02,03,04,05,06,07,08,09,10,11,12,1.0,1.0,1.0*30
$GPRMC,043721.376,A,5608.970,N,09257.848,E,019.4,028.1,250620,000.0,W*77
$GPGGA,043722.376,5608.975,N,09257.850,E,1,12,1.0,0.0,M,0.0,M,,*68
$GPGSA,A,3,01,02,03,04,05,06,07,08,09,10,11,12,1.0,1.0,1.0*30
$GPRMC,043722.376,A,5608.975,N,09257.850,E,019.4,028.1,250620,000.0,W*78
$GPGGA,043723.376,5608.980,N,09257.853,E,1,12,1.0,0.0,M,0.0,M,,*60
$GPGSA,A,3,01,02,03,04,05,06,07,08,09,10,11,12,1.0,1.0,1.0*30
$GPRMC,043723.376,A,5608.980,N,09257.853,E,019.4,028.1,250620,000.0,W*70
$GPGGA,043724.376,5608.985,N,09257.856,E,1,12,1.0,0.0,M,0.0,M,,*67
$GPGSA,A,3,01,02,03,04,05,06,07,08,09,10,11,12,1.0,1.0,1.0*30
$GPRMC,043724.376,A,5608.985,N,09257.856,E,019.4,028.1,250620,000.0,W*77
$GPGGA,043725.376,5608.991,N,09257.859,E,1,12,1.0,0.0,M,0.0,M,,*6C
$GPGSA,A,3,01,02,03,04,05,06,07,08,09,10,11,12,1.0,1.0,1.0*30
$GPRMC,043725.376,A,5608.991,N,09257.859,E,019.4,028.1,250620,000.0,W*7C
$GPGGA,043726.376,5608.996,N,09257.862,E,1,12,1.0,0.0,M,0.0,M,,*60
$GPGSA,A,3,01,02,03,04,05,06,07,08,09,10,11,12,1.0,1.0,1.0*30
$GPRMC,043726.376,A,5608.996,N,09257.862,E,019.4,028.1,250620,000.0,W*70
$GPGGA,043727.376,5609.001,N,09257.864,E,1,12,1.0,0.0,M,0.0,M,,*61
$GPGSA,A,3,01,02,03,04,05,06,07,08,09,10,11,12,1.0,1.0,1.0*30
$GPRMC,043727.376,A,5609.001,N,09257.864,E,019.4,028.1,250620,000.0,W*71
$GPGGA,043728.376,5609.006,N,09257.867,E,1,12,1.0,0.0,M,0.0,M,,*6A
$GPGSA,A,3,01,02,03,04,05,06,07,08,09,10,11,12,1.0,1.0,1.0*30
$GPRMC,043728.376,A,5609.006,N,09257.867,E,019.4,028.1,250620,000.0,W*7A
$GPGGA,043729.376,5609.011,N,09257.870,E,1,12,1.0,0.0,M,0.0,M,,*6B
$GPGSA,A,3,01,02,03,04,05,06,07,08,09,10,11,12,1.0,1.0,1.0*30
$GPRMC,043729.376,A,5609.011,N,09257.870,E,019.4,028.1,250620,000.0,W*7B
$GPGGA,043730.376,5609.016,N,09257.873,E,1,12,1.0,0.0,M,0.0,M,,*67
$GPGSA,A,3,01,02,03,04,05,06,07,08,09,10,11,12,1.0,1.0,1.0*30
$GPRMC,043730.376,A,5609.016,N,09257.873,E,019.4,028.1,250620,000.0,W*77
$GPGGA,043731.376,5609.022,N,09257.875,E,1,12,1.0,0.0,M,0.0,M,,*67
$GPGSA,A,3,01,02,03,04,05,06,07,08,09,10,11,12,1.0,1.0,1.0*30
$GPRMC,043731.376,A,5609.022,N,09257.875,E,019.4,028.1,250620,000.0,W*77
$GPGGA,043732.376,5609.027,N,09257.878,E,1,12,1.0,0.0,M,0.0,M,,*6C
$GPGSA,A,3,01,02,03,04,05,06,07,08,09,10,11,12,1.0,1.0,1.0*30
$GPRMC,043732.376,A,5609.027,N,09257.878,E,019.4,028.1,250620,000.0,W*7C
$GPGGA,043733.376,5609.032,N,09257.881,E,1,12,1.0,0.0,M,0.0,M,,*6F
$GPGSA,A,3,01,02,03,04,05,06,07,08,09,10,11,12,1.0,1.0,1.0*30
$GPRMC,043733.376,A,5609.032,N,09257.881,E,019.4,028.1,250620,000.0,W*7F
$GPGGA,043734.376,5609.037,N,09257.884,E,1,12,1.0,0.0,M,0.0,M,,*68
$GPGSA,A,3,01,02,03,04,05,06,07,08,09,10,11,12,1.0,1.0,1.0*30
$GPRMC,043734.376,A,5609.037,N,09257.884,E,019.4,028.1,250620,000.0,W*78
$GPGGA,043735.376,5609.042,N,09257.887,E,1,12,1.0,0.0,M,0.0,M,,*68
$GPGSA,A,3,01,02,03,04,05,06,07,08,09,10,11,12,1.0,1.0,1.0*30
$GPRMC,043735.376,A,5609.042,N,09257.887,E,019.4,028.1,250620,000.0,W*78
$GPGGA,043736.376,5609.047,N,09257.889,E,1,12,1.0,0.0,M,0.0,M,,*60
$GPGSA,A,3,01,02,03,04,05,06,07,08,09,10,11,12,1.0,1.0,1.0*30
$GPRMC,043736.376,A,5609.047,N,09257.889,E,019.4,028.1,250620,000.0,W*70
$GPGGA,043737.376,5609.053,N,09257.892,E,1,12,1.0,0.0,M,0.0,M,,*6E
$GPGSA,A,3,01,02,03,04,05,06,07,08,09,10,11,12,1.0,1.0,1.0*30
$GPRMC,043737.376,A,5609.053,N,09257.892,E,019.4,028.1,250620,000.0,W*7E
$GPGGA,043738.376,5609.058,N,09257.895,E,1,12,1.0,0.0,M,0.0,M,,*6D
$GPGSA,A,3,01,02,03,04,05,06,07,08,09,10,11,12,1.0,1.0,1.0*30
$GPRMC,043738.376,A,5609.058,N,09257.895,E,019.4,028.1,250620,000.0,W*7D
$GPGGA,043739.376,5609.063,N,09257.898,E,1,12,1.0,0.0,M,0.0,M,,*69
$GPGSA,A,3,01,02,03,04,05,06,07,08,09,10,11,12,1.0,1.0,1.0*30
$GPRMC,043739.376,A,5609.063,N,09257.898,E,019.4,028.1,250620,000.0,W*79
$GPGGA,043740.376,5609.068,N,09257.900,E,1,12,1.0,0.0,M,0.0,M,,*6C
$GPGSA,A,3,01,02,03,04,05,06,07,08,09,10,11,12,1.0,1.0,1.0*30
$GPRMC,043740.376,A,5609.068,N,09257.900,E,019.4,028.1,250620,000.0,W*7C
$GPGGA,043741.376,5609.073,N,09257.903,E,1,12,1.0,0.0,M,0.0,M,,*64
$GPGSA,A,3,01,02,03,04,05,06,07,08,09,10,11,12,1.0,1.0,1.0*30
$GPRMC,043741.376,A,5609.073,N,09257.903,E,019.4,028.1,250620,000.0,W*74
$GPGGA,043742.376,5609.078,N,09257.906,E,1,12,1.0,0.0,M,0.0,M,,*69
$GPGSA,A,3,01,02,03,04,05,06,07,08,09,10,11,12,1.0,1.0,1.0*30
$GPRMC,043742.376,A,5609.078,N,09257.906,E,019.4,028.1,250620,000.0,W*79
$GPGGA,043743.376,5609.084,N,09257.909,E,1,12,1.0,0.0,M,0.0,M,,*64
$GPGSA,A,3,01,02,03,04,05,06,07,08,09,10,11,12,1.0,1.0,1.0*30
$GPRMC,043743.376,A,5609.084,N,09257.909,E,019.4,028.1,250620,000.0,W*74
$GPGGA,043744.376,5609.089,N,09257.912,E,1,12,1.0,0.0,M,0.0,M,,*64
$GPGSA,A,3,01,02,03,04,05,06,07,08,09,10,11,12,1.0,1.0,1.0*30
$GPRMC,043744.376,A,5609.089,N,09257.912,E,019.4,028.1,250620,000.0,W*74
$GPGGA,043745.376,5609.094,N,09257.914,E,1,12,1.0,0.0,M,0.0,M,,*6F
$GPGSA,A,3,01,02,03,04,05,06,07,08,09,10,11,12,1.0,1.0,1.0*30
$GPRMC,043745.376,A,5609.094,N,09257.914,E,019.4,028.1,250620,000.0,W*7F
$GPGGA,043746.376,5609.099,N,09257.917,E,1,12,1.0,0.0,M,0.0,M,,*62
$GPGSA,A,3,01,02,03,04,05,06,07,08,09,10,11,12,1.0,1.0,1.0*30
$GPRMC,043746.376,A,5609.099,N,09257.917,E,019.4,028.1,250620,000.0,W*72
$GPGGA,043747.376,5609.104,N,09257.920,E,1,12,1.0,0.0,M,0.0,M,,*62
$GPGSA,A,3,01,02,03,04,05,06,07,08,09,10,11,12,1.0,1.0,1.0*30
$GPRMC,043747.376,A,5609.104,N,09257.920,E,019.4,028.1,250620,000.0,W*72
$GPGGA,043748.376,5609.109,N,09257.923,E,1,12,1.0,0.0,M,0.0,M,,*63
$GPGSA,A,3,01,02,03,04,05,06,07,08,09,10,11,12,1.0,1.0,1.0*30
$GPRMC,043748.376,A,5609.109,N,09257.923,E,019.4,028.1,250620,000.0,W*73
$GPGGA,043749.376,5609.115,N,09257.925,E,1,12,1.0,0.0,M,0.0,M,,*69
$GPGSA,A,3,01,02,03,04,05,06,07,08,09,10,11,12,1.0,1.0,1.0*30
$GPRMC,043749.376,A,5609.115,N,09257.925,E,019.4,028.1,250620,000.0,W*79
$GPGGA,043750.376,5609.120,N,09257.928,E,1,12,1.0,0.0,M,0.0,M,,*6A
$GPGSA,A,3,01,02,03,04,05,06,07,08,09,10,11,12,1.0,1.0,1.0*30
$GPRMC,043750.376,A,5609.120,N,09257.928,E,019.4,028.1,250620,000.0,W*7A
$GPGGA,043751.376,5609.125,N,09257.931,E,1,12,1.0,0.0,M,0.0,M,,*66
$GPGSA,A,3,01,02,03,04,05,06,07,08,09,10,11,12,1.0,1.0,1.0*30
$GPRMC,043751.376,A,5609.125,N,09257.931,E,019.4,028.1,250620,000.0,W*76
$GPGGA,043752.376,5609.130,N,09257.934,E,1,12,1.0,0.0,M,0.0,M,,*64
$GPGSA,A,3,01,02,03,04,05,06,07,08,09,10,11,12,1.0,1.0,1.0*30
$GPRMC,043752.376,A,5609.130,N,09257.934,E,019.4,028.1,250620,000.0,W*74
$GPGGA,043753.376,5609.135,N,09257.937,E,1,12,1.0,0.0,M,0.0,M,,*63
$GPGSA,A,3,01,02,03,04,05,06,07,08,09,10,11,12,1.0,1.0,1.0*30
$GPRMC,043753.376,A,5609.135,N,09257.937,E,019.4,028.1,250620,000.0,W*73
$GPGGA,043754.376,5609.140,N,09257.939,E,1,12,1.0,0.0,M,0.0,M,,*68
$GPGSA,A,3,01,02,03,04,05,06,07,08,09,10,11,12,1.0,1.0,1.0*30
$GPRMC,043754.376,A,5609.140,N,09257.939,E,019.4,028.1,250620,000.0,W*78
$GPGGA,043755.376,5609.146,N,09257.942,E,1,12,1.0,0.0,M,0.0,M,,*63
$GPGSA,A,3,01,02,03,04,05,06,07,08,09,10,11,12,1.0,1.0,1.0*30
$GPRMC,043755.376,A,5609.146,N,09257.942,E,019.4,028.1,250620,000.0,W*73
$GPGGA,043756.376,5609.151,N,09257.945,E,1,12,1.0,0.0,M,0.0,M,,*61
$GPGSA,A,3,01,02,03,04,05,06,07,08,09,10,11,12,1.0,1.0,1.0*30
$GPRMC,043756.376,A,5609.151,N,09257.945,E,019.4,028.1,250620,000.0,W*71
$GPGGA,043757.376,5609.156,N,09257.948,E,1,12,1.0,0.0,M,0.0,M,,*6A
$GPGSA,A,3,01,02,03,04,05,06,07,08,09,10,11,12,1.0,1.0,1.0*30
$GPRMC,043757.376,A,5609.156,N,09257.948,E,019.4,028.1,250620,000.0,W*7A
$GPGGA,043758.376,5609.161,N,09257.950,E,1,12,1.0,0.0,M,0.0,M,,*68
$GPGSA,A,3,01,02,03,04,05,06,07,08,09,10,11,12,1.0,1.0,1.0*30
$GPRMC,043758.376,A,5609.161,N,09257.950,E,019.4,028.1,250620,000.0,W*78
$GPGGA,043759.376,5609.166,N,09257.953,E,1,12,1.0,0.0,M,0.0,M,,*6D
$GPGSA,A,3,01,02,03,04,05,06,07,08,09,10,11,12,1.0,1.0,1.0*30
$GPRMC,043759.376,A,5609.166,N,09257.953,E,019.4,028.1,250620,000.0,W*7D
$GPGGA,043800.376,5609.171,N,09257.956,E,1,12,1.0,0.0,M,0.0,M,,*6D
$GPGSA,A,3,01,02,03,04,05,06,07,08,09,10,11,12,1.0,1.0,1.0*30
$GPRMC,043800.376,A,5609.171,N,09257.956,E,019.4,028.1,250620,000.0,W*7D
$GPGGA,043801.376,5609.177,N,09257.959,E,1,12,1.0,0.0,M,0.0,M,,*65
$GPGSA,A,3,01,02,03,04,05,06,07,08,09,10,11,12,1.0,1.0,1.0*30
$GPRMC,043801.376,A,5609.177,N,09257.959,E,019.4,028.1,250620,000.0,W*75
$GPGGA,043802.376,5609.182,N,09257.962,E,1,12,1.0,0.0,M,0.0,M,,*64
$GPGSA,A,3,01,02,03,04,05,06,07,08,09,10,11,12,1.0,1.0,1.0*30
$GPRMC,043802.376,A,5609.182,N,09257.962,E,019.4,028.1,250620,000.0,W*74
$GPGGA,043803.376,5609.187,N,09257.964,E,1,12,1.0,0.0,M,0.0,M,,*66
$GPGSA,A,3,01,02,03,04,05,06,07,08,09,10,11,12,1.0,1.0,1.0*30
$GPRMC,043803.376,A,5609.187,N,09257.964,E,019.4,028.1,250620,000.0,W*76
$GPGGA,043804.376,5609.192,N,09257.967,E,1,12,1.0,0.0,M,0.0,M,,*66
$GPGSA,A,3,01,02,03,04,05,06,07,08,09,10,11,12,1.0,1.0,1.0*30
$GPRMC,043804.376,A,5609.192,N,09257.967,E,019.4,028.1,250620,000.0,W*76
$GPGGA,043805.376,5609.197,N,09257.970,E,1,12,1.0,0.0,M,0.0,M,,*64
$GPGSA,A,3,01,02,03,04,05,06,07,08,09,10,11,12,1.0,1.0,1.0*30
$GPRMC,043805.376,A,5609.197,N,09257.970,E,019.4,028.1,250620,000.0,W*74
$GPGGA,043806.376,5609.202,N,09257.973,E,1,12,1.0,0.0,M,0.0,M,,*6B
$GPGSA,A,3,01,02,03,04,05,06,07,08,09,10,11,12,1.0,1.0,1.0*30
$GPRMC,043806.376,A,5609.202,N,09257.973,E,019.4,028.1,250620,000.0,W*7B
$GPGGA,043807.376,5609.208,N,09257.975,E,1,12,1.0,0.0,M,0.0,M,,*66
$GPGSA,A,3,01,02,03,04,05,06,07,08,09,10,11,12,1.0,1.0,1.0*30
$GPRMC,043807.376,A,5609.208,N,09257.975,E,019.4,028.1,250620,000.0,W*76
$GPGGA,043808.376,5609.213,N,09257.978,E,1,12,1.0,0.0,M,0.0,M,,*6E
$GPGSA,A,3,01,02,03,04,05,06,07,08,09,10,11,12,1.0,1.0,1.0*30
$GPRMC,043808.376,A,5609.213,N,09257.978,E,019.4,028.1,250620,000.0,W*7E
$GPGGA,043809.376,5609.218,N,09257.981,E,1,12,1.0,0.0,M,0.0,M,,*62
$GPGSA,A,3,01,02,03,04,05,06,07,08,09,10,11,12,1.0,1.0,1.0*30
$GPRMC,043809.376,A,5609.218,N,09257.981,E,019.4,028.1,250620,000.0,W*72
$GPGGA,043810.376,5609.223,N,09257.984,E,1,12,1.0,0.0,M,0.0,M,,*67
$GPGSA,A,3,01,02,03,04,05,06,07,08,09,10,11,12,1.0,1.0,1.0*30
$GPRMC,043810.376,A,5609.223,N,09257.984,E,019.4,028.1,250620,000.0,W*77
$GPGGA,043811.376,5609.228,N,09257.987,E,1,12,1.0,0.0,M,0.0,M,,*6E
$GPGSA,A,3,01,02,03,04,05,06,07,08,09,10,11,12,1.0,1.0,1.0*30
$GPRMC,043811.376,A,5609.228,N,09257.987,E,019.4,028.1,250620,000.0,W*7E
$GPGGA,043812.376,5609.233,N,09257.989,E,1,12,1.0,0.0,M,0.0,M,,*69
$GPGSA,A,3,01,02,03,04,05,06,07,08,09,10,11,12,1.0,1.0,1.0*30
$GPRMC,043812.376,A,5609.233,N,09257.989,E,019.4,028.1,250620,000.0,W*79
$GPGGA,043813.376,5609.239,N,09257.992,E,1,12,1.0,0.0,M,0.0,M,,*68
$GPGSA,A,3,01,02,03,04,05,06,07,08,09,10,11,12,1.0,1.0,1.0*30
$GPRMC,043813.376,A,5609.239,N,09257.992,E,019.4,028.1,250620,000.0,W*78
$GPGGA,043814.376,5609.244,N,09257.995,E,1,12,1.0,0.0,M,0.0,M,,*62
$GPGSA,A,3,01,02,03,04,05,06,07,08,09,10,11,12,1.0,1.0,1.0*30
$GPRMC,043814.376,A,5609.244,N,09257.995,E,019.4,028.1,250620,000.0,W*72
$GPGGA,043815.376,5609.249,N,09257.998,E,1,12,1.0,0.0,M,0.0,M,,*63
$GPGSA,A,3,01,02,03,04,05,06,07,08,09,10,11,12,1.0,1.0,1.0*30
$GPRMC,043815.376,A,5609.249,N,09257.998,E,019.4,028.1,250620,000.0,W*73
$GPGGA,043816.376,5609.254,N,09258.000,E,1,12,1.0,0.0,M,0.0,M,,*6B
$GPGSA,A,3,01,02,03,04,05,06,07,08,09,10,11,12,1.0,1.0,1.0*30
$GPRMC,043816.376,A,5609.254,N,09258.000,E,019.4,028.1,250620,000.0,W*7B
$GPGGA,043817.376,5609.259,N,09258.003,E,1,12,1.0,0.0,M,0.0,M,,*64
$GPGSA,A,3,01,02,03,04,05,06,07,08,09,10,11,12,1.0,1.0,1.0*30
$GPRMC,043817.376,A,5609.259,N,09258.003,E,019.4,028.1,250620,000.0,W*74
$GPGGA,043818.376,5609.265,N,09258.006,E,1,12,1.0,0.0,M,0.0,M,,*61
$GPGSA,A,3,01,02,03,04,05,06,07,08,09,10,11,12,1.0,1.0,1.0*30
$GPRMC,043818.376,A,5609.265,N,09258.006,E,019.4,028.1,250620,000.0,W*71
$GPGGA,043819.376,5609.270,N,09258.009,E,1,12,1.0,0.0,M,0.0,M,,*6B
$GPGSA,A,3,01,02,03,04,05,06,07,08,09,10,11,12,1.0,1.0,1.0*30
$GPRMC,043819.376,A,5609.270,N,09258.009,E,019.4,028.1,250620,000.0,W*7B
$GPGGA,043820.376,5609.275,N,09258.012,E,1,12,1.0,0.0,M,0.0,M,,*6E
$GPGSA,A,3,01,02,03,04,05,06,07,08,09,10,11,12,1.0,1.0,1.0*30
$GPRMC,043820.376,A,5609.275,N,09258.012,E,019.4,028.1,250620,000.0,W*7E
$GPGGA,043821.376,5609.280,N,09258.014,E,1,12,1.0,0.0,M,0.0,M,,*63
$GPGSA,A,3,01,02,03,04,05,06,07,08,09,10,11,12,1.0,1.0,1.0*30
$GPRMC,043821.376,A,5609.280,N,09258.014,E,019.4,028.1,250620,000.0,W*73
$GPGGA,043822.376,5609.285,N,09258.017,E,1,12,1.0,0.0,M,0.0,M,,*66
$GPGSA,A,3,01,02,03,04,05,06,07,08,09,10,11,12,1.0,1.0,1.0*30
$GPRMC,043822.376,A,5609.285,N,09258.017,E,019.4,028.1,250620,000.0,W*76
$GPGGA,043823.376,5609.290,N,09258.020,E,1,12,1.0,0.0,M,0.0,M,,*67
$GPGSA,A,3,01,02,03,04,05,06,07,08,09,10,11,12,1.0,1.0,1.0*30
$GPRMC,043823.376,A,5609.290,N,09258.020,E,019.4,028.1,250620,000.0,W*77
$GPGGA,043824.376,5609.296,N,09258.023,E,1,12,1.0,0.0,M,0.0,M,,*65
$GPGSA,A,3,01,02,03,04,05,06,07,08,09,10,11,12,1.0,1.0,1.0*30
$GPRMC,043824.376,A,5609.296,N,09258.023,E,019.4,028.1,250620,000.0,W*75
$GPGGA,043825.376,5609.301,N,09258.025,E,1,12,1.0,0.0,M,0.0,M,,*6D
$GPGSA,A,3,01,02,03,04,05,06,07,08,09,10,11,12,1.0,1.0,1.0*30
$GPRMC,043825.376,A,5609.301,N,09258.025,E,019.4,028.1,250620,000.0,W*7D
$GPGGA,043826.376,5609.306,N,09258.028,E,1,12,1.0,0.0,M,0.0,M,,*64
$GPGSA,A,3,01,02,03,04,05,06,07,08,09,10,11,12,1.0,1.0,1.0*30
$GPRMC,043826.376,A,5609.306,N,09258.028,E,019.4,028.1,250620,000.0,W*74
$GPGGA,043827.376,5609.311,N,09258.031,E,1,12,1.0,0.0,M,0.0,M,,*6B
$GPGSA,A,3,01,02,03,04,05,06,07,08,09,10,11,12,1.0,1.0,1.0*30
$GPRMC,043827.376,A,5609.311,N,09258.031,E,019.4,028.1,250620,000.0,W*7B
$GPGGA,043828.376,5609.316,N,09258.034,E,1,12,1.0,0.0,M,0.0,M,,*66
$GPGSA,A,3,01,02,03,04,05,06,07,08,09,10,11,12,1.0,1.0,1.0*30
$GPRMC,043828.376,A,5609.316,N,09258.034,E,019.4,028.1,250620,000.0,W*76
$GPGGA,043829.376,5609.321,N,09258.037,E,1,12,1.0,0.0,M,0.0,M,,*60
$GPGSA,A,3,01,02,03,04,05,06,07,08,09,10,11,12,1.0,1.0,1.0*30
$GPRMC,043829.376,A,5609.321,N,09258.037,E,019.4,028.1,250620,000.0,W*70
$GPGGA,043830.376,5609.327,N,09258.039,E,1,12,1.0,0.0,M,0.0,M,,*60
$GPGSA,A,3,01,02,03,04,05,06,07,08,09,10,11,12,1.0,1.0,1.0*30
$GPRMC,043830.376,A,5609.327,N,09258.039,E,019.4,028.1,250620,000.0,W*70
$GPGGA,043831.376,5609.332,N,09258.042,E,1,12,1.0,0.0,M,0.0,M,,*69
$GPGSA,A,3,01,02,03,04,05,06,07,08,09,10,11,12,1.0,1.0,1.0*30
$GPRMC,043831.376,A,5609.332,N,09258.042,E,019.4,028.1,250620,000.0,W*79
$GPGGA,043832.376,5609.337,N,09258.045,E,1,12,1.0,0.0,M,0.0,M,,*68
$GPGSA,A,3,01,02,03,04,05,06,07,08,09,10,11,12,1.0,1.0,1.0*30
$GPRMC,043832.376,A,5609.337,N,09258.045,E,019.4,028.1,250620,000.0,W*78
$GPGGA,043833.376,5609.342,N,09258.048,E,1,12,1.0,0.0,M,0.0,M,,*66
$GPGSA,A,3,01,02,03,04,05,06,07,08,09,10,11,12,1.0,1.0,1.0*30
$GPRMC,043833.376,A,5609.342,N,09258.048,E,019.4,028.1,250620,000.0,W*76
$GPGGA,043834.376,5609.347,N,09258.050,E,1,12,1.0,0.0,M,0.0,M,,*6D
$GPGSA,A,3,01,02,03,04,05,06,07,08,09,10,11,12,1.0,1.0,1.0*30
$GPRMC,043834.376,A,5609.347,N,09258.050,E,019.4,028.1,250620,000.0,W*7D
$GPGGA,043835.376,5609.352,N,09258.053,E,1,12,1.0,0.0,M,0.0,M,,*6B
$GPGSA,A,3,01,02,03,04,05,06,07,08,09,10,11,12,1.0,1.0,1.0*30
$GPRMC,043835.376,A,5609.352,N,09258.053,E,019.4,028.1,250620,000.0,W*7B
$GPGGA,043836.376,5609.358,N,09258.056,E,1,12,1.0,0.0,M,0.0,M,,*67
$GPGSA,A,3,01,02,03,04,05,06,07,08,09,10,11,12,1.0,1.0,1.0*30
$GPRMC,043836.376,A,5609.358,N,09258.056,E,019.4,028.1,250620,000.0,W*77
$GPGGA,043837.376,5609.363,N,09258.059,E,1,12,1.0,0.0,M,0.0,M,,*61
$GPGSA,A,3,01,02,03,04,05,06,07,08,09,10,11,12,1.0,1.0,1.0*30
$GPRMC,043837.376,A,5609.363,N,09258.059,E,019.4,028.1,250620,000.0,W*71
$GPGGA,043838.376,5609.368,N,09258.062,E,1,12,1.0,0.0,M,0.0,M,,*6D
$GPGSA,A,3,01,02,03,04,05,06,07,08,09,10,11,12,1.0,1.0,1.0*30
$GPRMC,043838.376,A,5609.368,N,09258.062,E,019.4,028.1,250620,000.0,W*7D
$GPGGA,043839.376,5609.373,N,09258.064,E,1,12,1.0,0.0,M,0.0,M,,*60
$GPGSA,A,3,01,02,03,04,05,06,07,08,09,10,11,12,1.0,1.0,1.0*30
$GPRMC,043839.376,A,5609.373,N,09258.064,E,019.4,028.1,250620,000.0,W*70
$GPGGA,043840.376,5609.378,N,09258.067,E,1,12,1.0,0.0,M,0.0,M,,*66
$GPGSA,A,3,01,02,03,04,05,06,07,08,09,10,11,12,1.0,1.0,1.0*30
$GPRMC,043840.376,A,5609.378,N,09258.067,E,019.4,028.1,250620,000.0,W*76
$GPGGA,043841.376,5609.383,N,09258.070,E,1,12,1.0,0.0,M,0.0,M,,*65
$GPGSA,A,3,01,02,03,04,05,06,07,08,09,10,11,12,1.0,1.0,1.0*30
$GPRMC,043841.376,A,5609.383,N,09258.070,E,019.4,028.1,250620,000.0,W*75
$GPGGA,043842.376,5609.389,N,09258.073,E,1,12,1.0,0.0,M,0.0,M,,*6F
$GPGSA,A,3,01,02,03,04,05,06,07,08,09,10,11,12,1.0,1.0,1.0*30
$GPRMC,043842.376,A,5609.389,N,09258.073,E,019.4,028.1,250620,000.0,W*7F
$GPGGA,043843.376,5609.394,N,09258.075,E,1,12,1.0,0.0,M,0.0,M,,*64
$GPGSA,A,3,01,02,03,04,05,06,07,08,09,10,11,12,1.0,1.0,1.0*30
$GPRMC,043843.376,A,5609.394,N,09258.075,E,019.4,028.1,250620,000.0,W*74
$GPGGA,043844.376,5609.399,N,09258.078,E,1,12,1.0,0.0,M,0.0,M,,*63
$GPGSA,A,3,01,02,03,04,05,06,07,08,09,10,11,12,1.0,1.0,1.0*30
$GPRMC,043844.376,A,5609.399,N,09258.078,E,019.4,028.1,250620,000.0,W*73
$GPGGA,043845.376,5609.404,N,09258.081,E,1,12,1.0,0.0,M,0.0,M,,*67
$GPGSA,A,3,01,02,03,04,05,06,07,08,09,10,11,12,1.0,1.0,1.0*30
$GPRMC,043845.376,A,5609.404,N,09258.081,E,019.4,028.1,250620,000.0,W*77
$GPGGA,043846.376,5609.409,N,09258.084,E,1,12,1.0,0.0,M,0.0,M,,*6C
$GPGSA,A,3,01,02,03,04,05,06,07,08,09,10,11,12,1.0,1.0,1.0*30
$GPRMC,043846.376,A,5609.409,N,09258.084,E,019.4,028.1,250620,000.0,W*7C
$GPGGA,043847.376,5609.414,N,09258.087,E,1,12,1.0,0.0,M,0.0,M,,*62
$GPGSA,A,3,01,02,03,04,05,06,07,08,09,10,11,12,1.0,1.0,1.0*30
$GPRMC,043847.376,A,5609.414,N,09258.087,E,019.4,028.1,250620,000.0,W*72
$GPGGA,043848.376,5609.420,N,09258.089,E,1,12,1.0,0.0,M,0.0,M,,*64
$GPGSA,A,3,01,02,03,04,05,06,07,08,09,10,11,12,1.0,1.0,1.0*30
$GPRMC,043848.376,A,5609.420,N,09258.089,E,019.4,028.1,250620,000.0,W*74
$GPGGA,043849.376,5609.425,N,09258.092,E,1,12,1.0,0.0,M,0.0,M,,*6A
$GPGSA,A,3,01,02,03,04,05,06,07,08,09,10,11,12,1.0,1.0,1.0*30
$GPRMC,043849.376,A,5609.425,N,09258.092,E,019.4,028.1,250620,000.0,W*7A
$GPGGA,043850.376,5609.430,N,09258.095,E,1,12,1.0,0.0,M,0.0,M,,*61
$GPGSA,A,3,01,02,03,04,05,06,07,08,09,10,11,12,1.0,1.0,1.0*30
$GPRMC,043850.376,A,5609.430,N,09258.095,E,019.4,028.1,250620,000.0,W*71
$GPGGA,043851.376,5609.435,N,09258.098,E,1,12,1.0,0.0,M,0.0,M,,*68
$GPGSA,A,3,01,02,03,04,05,06,07,08,09,10,11,12,1.0,1.0,1.0*30
$GPRMC,043851.376,A,5609.435,N,09258.098,E,019.4,028.1,250620,000.0,W*78
$GPGGA,043852.376,5609.440,N,09258.100,E,1,12,1.0,0.0,M,0.0,M,,*69
$GPGSA,A,3,01,02,03,04,05,06,07,08,09,10,11,12,1.0,1.0,1.0*30
$GPRMC,043852.376,A,5609.440,N,09258.100,E,019.4,028.1,250620,000.0,W*79
$GPGGA,043853.376,5609.445,N,09258.103,E,1,12,1.0,0.0,M,0.0,M,,*6E
$GPGSA,A,3,01,02,03,04,05,06,07,08,09,10,11,12,1.0,1.0,1.0*30
$GPRMC,043853.376,A,5609.445,N,09258.103,E,019.4,028.1,250620,000.0,W*7E
$GPGGA,043854.376,5609.451,N,09258.106,E,1,12,1.0,0.0,M,0.0,M,,*69
$GPGSA,A,3,01,02,03,04,05,06,07,08,09,10,11,12,1.0,1.0,1.0*30
$GPRMC,043854.376,A,5609.451,N,09258.106,E,019.4,028.1,250620,000.0,W*79
$GPGGA,043855.376,5609.456,N,09258.109,E,1,12,1.0,0.0,M,0.0,M,,*60
$GPGSA,A,3,01,02,03,04,05,06,07,08,09,10,11,12,1.0,1.0,1.0*30
$GPRMC,043855.376,A,5609.456,N,09258.109,E,019.4,028.1,250620,000.0,W*70
$GPGGA,043856.376,5609.461,N,09258.112,E,1,12,1.0,0.0,M,0.0,M,,*6D
$GPGSA,A,3,01,02,03,04,05,06,07,08,09,10,11,12,1.0,1.0,1.0*30
$GPRMC,043856.376,A,5609.461,N,09258.112,E,019.4,028.1,250620,000.0,W*7D
$GPGGA,043857.376,5609.466,N,09258.114,E,1,12,1.0,0.0,M,0.0,M,,*6D
$GPGSA,A,3,01,02,03,04,05,06,07,08,09,10,11,12,1.0,1.0,1.0*30
$GPRMC,043857.376,A,5609.466,N,09258.114,E,019.4,028.1,250620,000.0,W*7D
$GPGGA,043858.376,5609.471,N,09258.117,E,1,12,1.0,0.0,M,0.0,M,,*67
$GPGSA,A,3,01,02,03,04,05,06,07,08,09,10,11,12,1.0,1.0,1.0*30
$GPRMC,043858.376,A,5609.471,N,09258.117,E,019.4,028.1,250620,000.0,W*77
$GPGGA,043859.376,5609.476,N,09258.120,E,1,12,1.0,0.0,M,0.0,M,,*65
$GPGSA,A,3,01,02,03,04,05,06,07,08,09,10,11,12,1.0,1.0,1.0*30
$GPRMC,043859.376,A,5609.476,N,09258.120,E,019.4,028.1,250620,000.0,W*75
$GPGGA,043900.376,5609.482,N,09258.123,E,1,12,1.0,0.0,M,0.0,M,,*60
$GPGSA,A,3,01,02,03,04,05,06,07,08,09,10,11,12,1.0,1.0,1.0*30
$GPRMC,043900.376,A,5609.482,N,09258.123,E,019.4,028.1,250620,000.0,W*70
$GPGGA,043901.376,5609.487,N,09258.125,E,1,12,1.0,0.0,M,0.0,M,,*62
$GPGSA,A,3,01,02,03,04,05,06,07,08,09,10,11,12,1.0,1.0,1.0*30
$GPRMC,043901.376,A,5609.487,N,09258.125,E,019.4,028.1,250620,000.0,W*72
$GPGGA,043902.376,5609.492,N,09258.128,E,1,12,1.0,0.0,M,0.0,M,,*68
$GPGSA,A,3,01,02,03,04,05,06,07,08,09,10,11,12,1.0,1.0,1.0*30
$GPRMC,043902.376,A,5609.492,N,09258.128,E,019.4,017.6,250620,000.0,W*73
$GPGGA,043903.376,5609.497,N,09258.130,E,1,12,1.0,0.0,M,0.0,M,,*65
$GPGSA,A,3,01,02,03,04,05,06,07,08,09,10,11,12,1.0,1.0,1.0*30
$GPRMC,043903.376,A,5609.497,N,09258.130,E,019.4,017.6,250620,000.0,W*7E
$GPGGA,043904.376,5609.503,N,09258.132,E,1,12,1.0,0.0,M,0.0,M,,*6C
$GPGSA,A,3,01,02,03,04,05,06,07,08,09,10,11,12,1.0,1.0,1.0*30
$GPRMC,043904.376,A,5609.503,N,09258.132,E,019.4,017.6,250620,000.0,W*77
$GPGGA,043905.376,5609.508,N,09258.133,E,1,12,1.0,0.0,M,0.0,M,,*67
$GPGSA,A,3,01,02,03,04,05,06,07,08,09,10,11,12,1.0,1.0,1.0*30
$GPRMC,043905.376,A,5609.508,N,09258.133,E,019.4,017.6,250620,000.0,W*7C
$GPGGA,043906.376,5609.513,N,09258.135,E,1,12,1.0,0.0,M,0.0,M,,*68
$GPGSA,A,3,01,02,03,04,05,06,07,08,09,10,11,12,1.0,1.0,1.0*30
$GPRMC,043906.376,A,5609.513,N,09258.135,E,019.4,017.6,250620,000.0,W*73
$GPGGA,043907.376,5609.519,N,09258.137,E,1,12,1.0,0.0,M,0.0,M,,*61
$GPGSA,A,3,01,02,03,04,05,06,07,08,09,10,11,12,1.0,1.0,1.0*30
$GPRMC,043907.376,A,5609.519,N,09258.137,E,019.4,017.6,250620,000.0,W*7A
$GPGGA,043908.376,5609.524,N,09258.138,E,1,12,1.0,0.0,M,0.0,M,,*6F
$GPGSA,A,3,01,02,03,04,05,06,07,08,09,10,11,12,1.0,1.0,1.0*30
$GPRMC,043908.376,A,5609.524,N,09258.138,E,019.4,017.6,250620,000.0,W*74
$GPGGA,043909.376,5609.529,N,09258.140,E,1,12,1.0,0.0,M,0.0,M,,*6C
$GPGSA,A,3,01,02,03,04,05,06,07,08,09,10,11,12,1.0,1.0,1.0*30
$GPRMC,043909.376,A,5609.529,N,09258.140,E,019.4,017.6,250620,000.0,W*77
$GPGGA,043910.376,5609.534,N,09258.142,E,1,12,1.0,0.0,M,0.0,M,,*6A
$GPGSA,A,3,01,02,03,04,05,06,07,08,09,10,11,12,1.0,1.0,1.0*30
$GPRMC,043910.376,A,5609.534,N,09258.142,E,019.4,017.6,250620,000.0,W*71
$GPGGA,043911.376,5609.540,N,09258.144,E,1,12,1.0,0.0,M,0.0,M,,*6E
$GPGSA,A,3,01,02,03,04,05,06,07,08,09,10,11,12,1.0,1.0,1.0*30
$GPRMC,043911.376,A,5609.540,N,09258.144,E,019.4,017.6,250620,000.0,W*75
$GPGGA,043912.376,5609.545,N,09258.145,E,1,12,1.0,0.0,M,0.0,M,,*69
$GPGSA,A,3,01,02,03,04,05,06,07,08,09,10,11,12,1.0,1.0,1.0*30
$GPRMC,043912.376,A,5609.545,N,09258.145,E,019.4,017.6,250620,000.0,W*72
$GPGGA,043913.376,5609.550,N,09258.147,E,1,12,1.0,0.0,M,0.0,M,,*6E
$GPGSA,A,3,01,02,03,04,05,06,07,08,09,10,11,12,1.0,1.0,1.0*30
$GPRMC,043913.376,A,5609.550,N,09258.147,E,019.4,017.6,250620,000.0,W*75
$GPGGA,043914.376,5609.556,N,09258.149,E,1,12,1.0,0.0,M,0.0,M,,*61
$GPGSA,A,3,01,02,03,04,05,06,07,08,09,10,11,12,1.0,1.0,1.0*30
$GPRMC,043914.376,A,5609.556,N,09258.149,E,019.4,017.6,250620,000.0,W*7A
$GPGGA,043915.376,5609.561,N,09258.150,E,1,12,1.0,0.0,M,0.0,M,,*6C
$GPGSA,A,3,01,02,03,04,05,06,07,08,09,10,11,12,1.0,1.0,1.0*30
$GPRMC,043915.376,A,5609.561,N,09258.150,E,019.4,017.6,250620,000.0,W*77
$GPGGA,043916.376,5609.566,N,09258.152,E,1,12,1.0,0.0,M,0.0,M,,*6A
$GPGSA,A,3,01,02,03,04,05,06,07,08,09,10,11,12,1.0,1.0,1.0*30
$GPRMC,043916.376,A,5609.566,N,09258.152,E,019.4,017.6,250620,000.0,W*71
$GPGGA,043917.376,5609.572,N,09258.154,E,1,12,1.0,0.0,M,0.0,M,,*68
$GPGSA,A,3,01,02,03,04,05,06,07,08,09,10,11,12,1.0,1.0,1.0*30
$GPRMC,043917.376,A,5609.572,N,09258.154,E,019.4,017.6,250620,000.0,W*73
$GPGGA,043918.376,5609.577,N,09258.155,E,1,12,1.0,0.0,M,0.0,M,,*63
$GPGSA,A,3,01,02,03,04,05,06,07,08,09,10,11,12,1.0,1.0,1.0*30
$GPRMC,043918.376,A,5609.577,N,09258.155,E,019.4,017.6,250620,000.0,W*78
$GPGGA,043919.376,5609.582,N,09258.157,E,1,12,1.0,0.0,M,0.0,M,,*6A
$GPGSA,A,3,01,02,03,04,05,06,07,08,09,10,11,12,1.0,1.0,1.0*30
$GPRMC,043919.376,A,5609.582,N,09258.157,E,019.4,017.6,250620,000.0,W*71
$GPGGA,043920.376,5609.588,N,09258.159,E,1,12,1.0,0.0,M,0.0,M,,*64
$GPGSA,A,3,01,02,03,04,05,06,07,08,09,10,11,12,1.0,1.0,1.0*30
$GPRMC,043920.376,A,5609.588,N,09258.159,E,019.4,017.6,250620,000.0,W*7F
$GPGGA,043921.376,5609.593,N,09258.160,E,1,12,1.0,0.0,M,0.0,M,,*65
$GPGSA,A,3,01,02,03,04,05,06,07,08,09,10,11,12,1.0,1.0,1.0*30
$GPRMC,043921.376,A,5609.593,N,09258.160,E,019.4,017.6,250620,000.0,W*7E
$GPGGA,043922.376,5609.598,N,09258.162,E,1,12,1.0,0.0,M,0.0,M,,*6F
$GPGSA,A,3,01,02,03,04,05,06,07,08,09,10,11,12,1.0,1.0,1.0*30
$GPRMC,043922.376,A,5609.598,N,09258.162,E,019.4,017.6,250620,000.0,W*74
$GPGGA,043923.376,5609.604,N,09258.164,E,1,12,1.0,0.0,M,0.0,M,,*6E
$GPGSA,A,3,01,02,03,04,05,06,07,08,09,10,11,12,1.0,1.0,1.0*30
$GPRMC,043923.376,A,5609.604,N,09258.164,E,019.4,017.6,250620,000.0,W*75
$GPGGA,043924.376,5609.609,N,09258.166,E,1,12,1.0,0.0,M,0.0,M,,*66
$GPGSA,A,3,01,02,03,04,05,06,07,08,09,10,11,12,1.0,1.0,1.0*30
$GPRMC,043924.376,A,5609.609,N,09258.166,E,019.4,017.6,250620,000.0,W*7D
$GPGGA,043925.376,5609.614,N,09258.167,E,1,12,1.0,0.0,M,0.0,M,,*6A
$GPGSA,A,3,01,02,03,04,05,06,07,08,09,10,11,12,1.0,1.0,1.0*30
$GPRMC,043925.376,A,5609.614,N,09258.167,E,019.4,017.6,250620,000.0,W*71
$GPGGA,043926.376,5609.619,N,09258.169,E,1,12,1.0,0.0,M,0.0,M,,*6A
$GPGSA,A,3,01,02,03,04,05,06,07,08,09,10,11,12,1.0,1.0,1.0*30
$GPRMC,043926.376,A,5609.619,N,09258.169,E,019.4,017.6,250620,000.0,W*71
$GPGGA,043927.376,5609.625,N,09258.171,E,1,12,1.0,0.0,M,0.0,M,,*6D
$GPGSA,A,3,01,02,03,04,05,06,07,08,09,10,11,12,1.0,1.0,1.0*30
$GPRMC,043927.376,A,5609.625,N,09258.171,E,019.4,017.6,250620,000.0,W*76
$GPGGA,043928.376,5609.630,N,09258.172,E,1,12,1.0,0.0,M,0.0,M,,*65
$GPGSA,A,3,01,02,03,04,05,06,07,08,09,10,11,12,1.0,1.0,1.0*30
$GPRMC,043928.376,A,5609.630,N,09258.172,E,019.4,017.6,250620,000.0,W*7E
$GPGGA,043929.376,5609.635,N,09258.174,E,1,12,1.0,0.0,M,0.0,M,,*67
$GPGSA,A,3,01,02,03,04,05,06,07,08,09,10,11,12,1.0,1.0,1.0*30
$GPRMC,043929.376,A,5609.635,N,09258.174,E,019.4,017.6,250620,000.0,W*7C
$GPGGA,043930.376,5609.641,N,09258.176,E,1,12,1.0,0.0,M,0.0,M,,*6E
$GPGSA,A,3,01,02,03,04,05,06,07,08,09,10,11,12,1.0,1.0,1.0*30
$GPRMC,043930.376,A,5609.641,N,09258.176,E,019.4,017.6,250620,000.0,W*75
$GPGGA,043931.376,5609.646,N,09258.177,E,1,12,1.0,0.0,M,0.0,M,,*69
$GPGSA,A,3,01,02,03,04,05,06,07,08,09,10,11,12,1.0,1.0,1.0*30
$GPRMC,043931.376,A,5609.646,N,09258.177,E,019.4,017.6,250620,000.0,W*72
$GPGGA,043932.376,5609.651,N,09258.179,E,1,12,1.0,0.0,M,0.0,M,,*62
$GPGSA,A,3,01,02,03,04,05,06,07,08,09,10,11,12,1.0,1.0,1.0*30
$GPRMC,043932.376,A,5609.651,N,09258.179,E,019.4,017.6,250620,000.0,W*79
$GPGGA,043933.376,5609.657,N,09258.181,E,1,12,1.0,0.0,M,0.0,M,,*62
$GPGSA,A,3,01,02,03,04,05,06,07,08,09,10,11,12,1.0,1.0,1.0*30
$GPRMC,043933.376,A,5609.657,N,09258.181,E,019.4,017.6,250620,000.0,W*79
$GPGGA,043934.376,5609.662,N,09258.182,E,1,12,1.0,0.0,M,0.0,M,,*60
$GPGSA,A,3,01,02,03,04,05,06,07,08,09,10,11,12,1.0,1.0,1.0*30
$GPRMC,043934.376,A,5609.662,N,09258.182,E,019.4,017.6,250620,000.0,W*7B
$GPGGA,043935.376,5609.667,N,09258.184,E,1,12,1.0,0.0,M,0.0,M,,*62
$GPGSA,A,3,01,02,03,04,05,06,07,08,09,10,11,12,1.0,1.0,1.0*30
$GPRMC,043935.376,A,5609.667,N,09258.184,E,019.4,017.6,250620,000.0,W*79
$GPGGA,043936.376,5609.673,N,09258.186,E,1,12,1.0,0.0,M,0.0,M,,*66
$GPGSA,A,3,01,02,03,04,05,06,07,08,09,10,11,12,1.0,1.0,1.0*30
$GPRMC,043936.376,A,5609.673,N,09258.186,E,019.4,017.6,250620,000.0,W*7D
$GPGGA,043937.376,5609.678,N,09258.188,E,1,12,1.0,0.0,M,0.0,M,,*62
$GPGSA,A,3,01,02,03,04,05,06,07,08,09,10,11,12,1.0,1.0,1.0*30
$GPRMC,043937.376,A,5609.678,N,09258.188,E,019.4,017.6,250620,000.0,W*79
$GPGGA,043938.376,5609.683,N,09258.189,E,1,12,1.0,0.0,M,0.0,M,,*68
$GPGSA,A,3,01,02,03,04,05,06,07,08,09,10,11,12,1.0,1.0,1.0*30
$GPRMC,043938.376,A,5609.683,N,09258.189,E,019.4,017.6,250620,000.0,W*73
$GPGGA,043939.376,5609.689,N,09258.191,E,1,12,1.0,0.0,M,0.0,M,,*6A
$GPGSA,A,3,01,02,03,04,05,06,07,08,09,10,11,12,1.0,1.0,1.0*30
$GPRMC,043939.376,A,5609.689,N,09258.191,E,019.4,017.6,250620,000.0,W*71
$GPGGA,043940.376,5609.694,N,09258.193,E,1,12,1.0,0.0,M,0.0,M,,*6A
$GPGSA,A,3,01,02,03,04,05,06,07,08,09,10,11,12,1.0,1.0,1.0*30
$GPRMC,043940.376,A,5609.694,N,09258.193,E,019.4,017.6,250620,000.0,W*71
$GPGGA,043941.376,5609.699,N,09258.194,E,1,12,1.0,0.0,M,0.0,M,,*61
$GPGSA,A,3,01,02,03,04,05,06,07,08,09,10,11,12,1.0,1.0,1.0*30
$GPRMC,043941.376,A,5609.699,N,09258.194,E,019.4,017.6,250620,000.0,W*7A
$GPGGA,043942.376,5609.704,N,09258.196,E,1,12,1.0,0.0,M,0.0,M,,*65
$GPGSA,A,3,01,02,03,04,05,06,07,08,09,10,11,12,1.0,1.0,1.0*30
$GPRMC,043942.376,A,5609.704,N,09258.196,E,019.4,017.6,250620,000.0,W*7E
$GPGGA,043943.376,5609.710,N,09258.198,E,1,12,1.0,0.0,M,0.0,M,,*6F
$GPGSA,A,3,01,02,03,04,05,06,07,08,09,10,11,12,1.0,1.0,1.0*30
$GPRMC,043943.376,A,5609.710,N,09258.198,E,019.4,017.6,250620,000.0,W*74
$GPGGA,043944.376,5609.715,N,09258.199,E,1,12,1.0,0.0,M,0.0,M,,*6C
$GPGSA,A,3,01,02,03,04,05,06,07,08,09,10,11,12,1.0,1.0,1.0*30
$GPRMC,043944.376,A,5609.715,N,09258.199,E,019.4,017.6,250620,000.0,W*77
$GPGGA,043945.376,5609.720,N,09258.201,E,1,12,1.0,0.0,M,0.0,M,,*69
$GPGSA,A,3,01,02,03,04,05,06,07,08,09,10,11,12,1.0,1.0,1.0*30
$GPRMC,043945.376,A,5609.720,N,09258.201,E,019.4,017.6,250620,000.0,W*72
$GPGGA,043946.376,5609.726,N,09258.203,E,1,12,1.0,0.0,M,0.0,M,,*6E
$GPGSA,A,3,01,02,03,04,05,06,07,08,09,10,11,12,1.0,1.0,1.0*30
$GPRMC,043946.376,A,5609.726,N,09258.203,E,019.4,017.6,250620,000.0,W*75
$GPGGA,043947.376,5609.731,N,09258.204,E,1,12,1.0,0.0,M,0.0,M,,*6E
$GPGSA,A,3,01,02,03,04,05,06,07,08,09,10,11,12,1.0,1.0,1.0*30
$GPRMC,043947.376,A,5609.731,N,09258.204,E,019.4,017.6,250620,000.0,W*75
$GPGGA,043948.376,5609.736,N,09258.206,E,1,12,1.0,0.0,M,0.0,M,,*64
$GPGSA,A,3,01,02,03,04,05,06,07,08,09,10,11,12,1.0,1.0,1.0*30
$GPRMC,043948.376,A,5609.736,N,09258.206,E,019.4,017.6,250620,000.0,W*7F
$GPGGA,043949.376,5609.742,N,09258.208,E,1,12,1.0,0.0,M,0.0,M,,*68
$GPGSA,A,3,01,02,03,04,05,06,07,08,09,10,11,12,1.0,1.0,1.0*30
$GPRMC,043949.376,A,5609.742,N,09258.208,E,019.4,017.6,250620,000.0,W*73
$GPGGA,043950.376,5609.747,N,09258.210,E,1,12,1.0,0.0,M,0.0,M,,*6C
$GPGSA,A,3,01,02,03,04,05,06,07,08,09,10,11,12,1.0,1.0,1.0*30
$GPRMC,043950.376,A,5609.747,N,09258.210,E,019.4,017.6,250620,000.0,W*77
$GPGGA,043951.376,5609.752,N,09258.211,E,1,12,1.0,0.0,M,0.0,M,,*68
$GPGSA,A,3,01,02,03,04,05,06,07,08,09,10,11,12,1.0,1.0,1.0*30
$GPRMC,043951.376,A,5609.752,N,09258.211,E,019.4,017.6,250620,000.0,W*73
$GPGGA,043952.376,5609.758,N,09258.213,E,1,12,1.0,0.0,M,0.0,M,,*63
$GPGSA,A,3,01,02,03,04,05,06,07,08,09,10,11,12,1.0,1.0,1.0*30
$GPRMC,043952.376,A,5609.758,N,09258.213,E,019.4,017.6,250620,000.0,W*78
$GPGGA,043953.376,5609.763,N,09258.215,E,1,12,1.0,0.0,M,0.0,M,,*6C
$GPGSA,A,3,01,02,03,04,05,06,07,08,09,10,11,12,1.0,1.0,1.0*30
$GPRMC,043953.376,A,5609.763,N,09258.215,E,019.4,017.6,250620,000.0,W*77
$GPGGA,043954.376,5609.768,N,09258.216,E,1,12,1.0,0.0,M,0.0,M,,*63
$GPGSA,A,3,01,02,03,04,05,06,07,08,09,10,11,12,1.0,1.0,1.0*30
$GPRMC,043954.376,A,5609.768,N,09258.216,E,019.4,017.6,250620,000.0,W*78
$GPGGA,043955.376,5609.774,N,09258.218,E,1,12,1.0,0.0,M,0.0,M,,*61
$GPGSA,A,3,01,02,03,04,05,06,07,08,09,10,11,12,1.0,1.0,1.0*30
$GPRMC,043955.376,A,5609.774,N,09258.218,E,019.4,017.6,250620,000.0,W*7A
$GPGGA,043956.376,5609.779,N,09258.220,E,1,12,1.0,0.0,M,0.0,M,,*64
$GPGSA,A,3,01,02,03,04,05,06,07,08,09,10,11,12,1.0,1.0,1.0*30
$GPRMC,043956.376,A,5609.779,N,09258.220,E,019.4,017.6,250620,000.0,W*7F
$GPGGA,043957.376,5609.784,N,09258.221,E,1,12,1.0,0.0,M,0.0,M,,*66
$GPGSA,A,3,01,02,03,04,05,06,07,08,09,10,11,12,1.0,1.0,1.0*30
$GPRMC,043957.376,A,5609.784,N,09258.221,E,019.4,017.6,250620,000.0,W*7D
$GPGGA,043958.376,5609.789,N,09258.223,E,1,12,1.0,0.0,M,0.0,M,,*66
$GPGSA,A,3,01,02,03,04,05,06,07,08,09,10,11,12,1.0,1.0,1.0*30
$GPRMC,043958.376,A,5609.789,N,09258.223,E,019.4,017.6,250620,000.0,W*7D
$GPGGA,043959.376,5609.795,N,09258.225,E,1,12,1.0,0.0,M,0.0,M,,*6C
$GPGSA,A,3,01,02,03,04,05,06,07,08,09,10,11,12,1.0,1.0,1.0*30
$GPRMC,043959.376,A,5609.795,N,09258.225,E,019.4,017.6,250620,000.0,W*77
$GPGGA,044000.376,5609.800,N,09258.227,E,1,12,1.0,0.0,M,0.0,M,,*6F
$GPGSA,A,3,01,02,03,04,05,06,07,08,09,10,11,12,1.0,1.0,1.0*30
$GPRMC,044000.376,A,5609.800,N,09258.227,E,019.4,017.6,250620,000.0,W*74
$GPGGA,044001.376,5609.805,N,09258.228,E,1,12,1.0,0.0,M,0.0,M,,*64
$GPGSA,A,3,01,02,03,04,05,06,07,08,09,10,11,12,1.0,1.0,1.0*30
$GPRMC,044001.376,A,5609.805,N,09258.228,E,019.4,017.6,250620,000.0,W*7F
$GPGGA,044002.376,5609.811,N,09258.230,E,1,12,1.0,0.0,M,0.0,M,,*6B
$GPGSA,A,3,01,02,03,04,05,06,07,08,09,10,11,12,1.0,1.0,1.0*30
$GPRMC,044002.376,A,5609.811,N,09258.230,E,019.4,017.6,250620,000.0,W*70
$GPGGA,044003.376,5609.816,N,09258.232,E,1,12,1.0,0.0,M,0.0,M,,*6F
$GPGSA,A,3,01,02,03,04,05,06,07,08,09,10,11,12,1.0,1.0,1.0*30
$GPRMC,044003.376,A,5609.816,N,09258.232,E,019.4,017.6,250620,000.0,W*74
$GPGGA,044004.376,5609.821,N,09258.233,E,1,12,1.0,0.0,M,0.0,M,,*6D
$GPGSA,A,3,01,02,03,04,05,06,07,08,09,10,11,12,1.0,1.0,1.0*30
$GPRMC,044004.376,A,5609.821,N,09258.233,E,019.4,017.6,250620,000.0,W*76
$GPGGA,044005.376,5609.827,N,09258.235,E,1,12,1.0,0.0,M,0.0,M,,*6C
$GPGSA,A,3,01,02,03,04,05,06,07,08,09,10,11,12,1.0,1.0,1.0*30
$GPRMC,044005.376,A,5609.827,N,09258.235,E,019.4,017.6,250620,000.0,W*77
$GPGGA,044006.376,5609.832,N,09258.237,E,1,12,1.0,0.0,M,0.0,M,,*69
$GPGSA,A,3,01,02,03,04,05,06,07,08,09,10,11,12,1.0,1.0,1.0*30
$GPRMC,044006.376,A,5609.832,N,09258.237,E,019.4,017.6,250620,000.0,W*72
$GPGGA,044007.376,5609.837,N,09258.238,E,1,12,1.0,0.0,M,0.0,M,,*62
$GPGSA,A,3,01,02,03,04,05,06,07,08,09,10,11,12,1.0,1.0,1.0*30
$GPRMC,044007.376,A,5609.837,N,09258.238,E,019.4,017.6,250620,000.0,W*79
$GPGGA,044008.376,5609.843,N,09258.240,E,1,12,1.0,0.0,M,0.0,M,,*61
$GPGSA,A,3,01,02,03,04,05,06,07,08,09,10,11,12,1.0,1.0,1.0*30
$GPRMC,044008.376,A,5609.843,N,09258.240,E,019.4,017.6,250620,000.0,W*7A
$GPGGA,044009.376,5609.848,N,09258.242,E,1,12,1.0,0.0,M,0.0,M,,*69
$GPGSA,A,3,01,02,03,04,05,06,07,08,09,10,11,12,1.0,1.0,1.0*30
$GPRMC,044009.376,A,5609.848,N,09258.242,E,019.4,017.6,250620,000.0,W*72
$GPGGA,044010.376,5609.853,N,09258.243,E,1,12,1.0,0.0,M,0.0,M,,*6A
$GPGSA,A,3,01,02,03,04,05,06,07,08,09,10,11,12,1.0,1.0,1.0*30
$GPRMC,044010.376,A,5609.853,N,09258.243,E,019.4,017.6,250620,000.0,W*71
$GPGGA,044011.376,5609.859,N,09258.245,E,1,12,1.0,0.0,M,0.0,M,,*67
$GPGSA,A,3,01,02,03,04,05,06,07,08,09,10,11,12,1.0,1.0,1.0*30
$GPRMC,044011.376,A,5609.859,N,09258.245,E,019.4,017.6,250620,000.0,W*7C
$GPGGA,044012.376,5609.864,N,09258.247,E,1,12,1.0,0.0,M,0.0,M,,*68
$GPGSA,A,3,01,02,03,04,05,06,07,08,09,10,11,12,1.0,1.0,1.0*30
$GPRMC,044012.376,A,5609.864,N,09258.247,E,019.4,017.6,250620,000.0,W*73
$GPGGA,044013.376,5609.869,N,09258.249,E,1,12,1.0,0.0,M,0.0,M,,*6A
$GPGSA,A,3,01,02,03,04,05,06,07,08,09,10,11,12,1.0,1.0,1.0*30
$GPRMC,044013.376,A,5609.869,N,09258.249,E,019.4,017.6,250620,000.0,W*71
$GPGGA,044014.376,5609.874,N,09258.250,E,1,12,1.0,0.0,M,0.0,M,,*69
$GPGSA,A,3,01,02,03,04,05,06,07,08,09,10,11,12,1.0,1.0,1.0*30
$GPRMC,044014.376,A,5609.874,N,09258.250,E,019.4,017.6,250620,000.0,W*72
$GPGGA,044015.376,5609.880,N,09258.252,E,1,12,1.0,0.0,M,0.0,M,,*61
$GPGSA,A,3,01,02,03,04,05,06,07,08,09,10,11,12,1.0,1.0,1.0*30
$GPRMC,044015.376,A,5609.880,N,09258.252,E,019.4,017.6,250620,000.0,W*7A
$GPGGA,044016.376,5609.885,N,09258.254,E,1,12,1.0,0.0,M,0.0,M,,*61
$GPGSA,A,3,01,02,03,04,05,06,07,08,09,10,11,12,1.0,1.0,1.0*30
$GPRMC,044016.376,A,5609.885,N,09258.254,E,019.4,017.6,250620,000.0,W*7A
$GPGGA,044017.376,5609.890,N,09258.255,E,1,12,1.0,0.0,M,0.0,M,,*65
$GPGSA,A,3,01,02,03,04,05,06,07,08,09,10,11,12,1.0,1.0,1.0*30
$GPRMC,044017.376,A,5609.890,N,09258.255,E,019.4,017.6,250620,000.0,W*7E
$GPGGA,044018.376,5609.896,N,09258.257,E,1,12,1.0,0.0,M,0.0,M,,*6E
$GPGSA,A,3,01,02,03,04,05,06,07,08,09,10,11,12,1.0,1.0,1.0*30
$GPRMC,044018.376,A,5609.896,N,09258.257,E,019.4,017.6,250620,000.0,W*75
$GPGGA,044019.376,5609.901,N,09258.259,E,1,12,1.0,0.0,M,0.0,M,,*6E
$GPGSA,A,3,01,02,03,04,05,06,07,08,09,10,11,12,1.0,1.0,1.0*30
$GPRMC,044019.376,A,5609.901,N,09258.259,E,019.4,017.6,250620,000.0,W*75
$GPGGA,044020.376,5609.906,N,09258.260,E,1,12,1.0,0.0,M,0.0,M,,*69
$GPGSA,A,3,01,02,03,04,05,06,07,08,09,10,11,12,1.0,1.0,1.0*30
$GPRMC,044020.376,A,5609.906,N,09258.260,E,019.4,017.6,250620,000.0,W*72
$GPGGA,044021.376,5609.912,N,09258.262,E,1,12,1.0,0.0,M,0.0,M,,*6F
$GPGSA,A,3,01,02,03,04,05,06,07,08,09,10,11,12,1.0,1.0,1.0*30
$GPRMC,044021.376,A,5609.912,N,09258.262,E,019.4,017.6,250620,000.0,W*74
$GPGGA,044022.376,5609.917,N,09258.264,E,1,12,1.0,0.0,M,0.0,M,,*6F
$GPGSA,A,3,01,02,03,04,05,06,07,08,09,10,11,12,1.0,1.0,1.0*30
$GPRMC,044022.376,A,5609.917,N,09258.264,E,019.4,017.6,250620,000.0,W*74
$GPGGA,044023.376,5609.922,N,09258.265,E,1,12,1.0,0.0,M,0.0,M,,*69
$GPGSA,A,3,01,02,03,04,05,06,07,08,09,10,11,12,1.0,1.0,1.0*30
$GPRMC,044023.376,A,5609.922,N,09258.265,E,019.4,017.6,250620,000.0,W*72
$GPGGA,044024.376,5609.928,N,09258.267,E,1,12,1.0,0.0,M,0.0,M,,*66
$GPGSA,A,3,01,02,03,04,05,06,07,08,09,10,11,12,1.0,1.0,1.0*30
$GPRMC,044024.376,A,5609.928,N,09258.267,E,019.4,017.6,250620,000.0,W*7D
$GPGGA,044025.376,5609.933,N,09258.269,E,1,12,1.0,0.0,M,0.0,M,,*63
$GPGSA,A,3,01,02,03,04,05,06,07,08,09,10,11,12,1.0,1.0,1.0*30
$GPRMC,044025.376,A,5609.933,N,09258.269,E,019.4,017.6,250620,000.0,W*78
$GPGGA,044026.376,5609.938,N,09258.271,E,1,12,1.0,0.0,M,0.0,M,,*62
$GPGSA,A,3,01,02,03,04,05,06,07,08,09,10,11,12,1.0,1.0,1.0*30
$GPRMC,044026.376,A,5609.938,N,09258.271,E,019.4,017.6,250620,000.0,W*79
$GPGGA,044027.376,5609.944,N,09258.272,E,1,12,1.0,0.0,M,0.0,M,,*6B
$GPGSA,A,3,01,02,03,04,05,06,07,08,09,10,11,12,1.0,1.0,1.0*30
$GPRMC,044027.376,A,5609.944,N,09258.272,E,019.4,017.6,250620,000.0,W*70
$GPGGA,044028.376,5609.949,N,09258.274,E,1,12,1.0,0.0,M,0.0,M,,*6F
$GPGSA,A,3,01,02,03,04,05,06,07,08,09,10,11,12,1.0,1.0,1.0*30
$GPRMC,044028.376,A,5609.949,N,09258.274,E,019.4,017.6,250620,000.0,W*74
$GPGGA,044029.376,5609.954,N,09258.276,E,1,12,1.0,0.0,M,0.0,M,,*60
$GPGSA,A,3,01,02,03,04,05,06,07,08,09,10,11,12,1.0,1.0,1.0*30
$GPRMC,044029.376,A,5609.954,N,09258.276,E,019.4,017.6,250620,000.0,W*7B
$GPGGA,044030.376,5609.959,N,09258.277,E,1,12,1.0,0.0,M,0.0,M,,*64
$GPGSA,A,3,01,02,03,04,05,06,07,08,09,10,11,12,1.0,1.0,1.0*30
$GPRMC,044030.376,A,5609.959,N,09258.277,E,019.4,017.6,250620,000.0,W*7F
$GPGGA,044031.376,5609.965,N,09258.279,E,1,12,1.0,0.0,M,0.0,M,,*64
$GPGSA,A,3,01,02,03,04,05,06,07,08,09,10,11,12,1.0,1.0,1.0*30
$GPRMC,044031.376,A,5609.965,N,09258.279,E,019.4,017.6,250620,000.0,W*7F
$GPGGA,044032.376,5609.970,N,09258.281,E,1,12,1.0,0.0,M,0.0,M,,*64
$GPGSA,A,3,01,02,03,04,05,06,07,08,09,10,11,12,1.0,1.0,1.0*30
$GPRMC,044032.376,A,5609.970,N,09258.281,E,019.4,017.6,250620,000.0,W*7F
$GPGGA,044033.376,5609.975,N,09258.282,E,1,12,1.0,0.0,M,0.0,M,,*63
$GPGSA,A,3,01,02,03,04,05,06,07,08,09,10,11,12,1.0,1.0,1.0*30
$GPRMC,044033.376,A,5609.975,N,09258.282,E,019.4,017.6,250620,000.0,W*78
$GPGGA,044034.376,5609.981,N,09258.284,E,1,12,1.0,0.0,M,0.0,M,,*69
$GPGSA,A,3,01,02,03,04,05,06,07,08,09,10,11,12,1.0,1.0,1.0*30
$GPRMC,044034.376,A,5609.981,N,09258.284,E,019.4,017.6,250620,000.0,W*72
$GPGGA,044035.376,5609.986,N,09258.286,E,1,12,1.0,0.0,M,0.0,M,,*6D
$GPGSA,A,3,01,02,03,04,05,06,07,08,09,10,11,12,1.0,1.0,1.0*30
$GPRMC,044035.376,A,5609.986,N,09258.286,E,019.4,017.6,250620,000.0,W*76
$GPGGA,044036.376,5609.991,N,09258.287,E,1,12,1.0,0.0,M,0.0,M,,*69
$GPGSA,A,3,01,02,03,04,05,06,07,08,09,10,11,12,1.0,1.0,1.0*30
$GPRMC,044036.376,A,5609.991,N,09258.287,E,019.4,017.6,250620,000.0,W*72
$GPGGA,044037.376,5609.997,N,09258.289,E,1,12,1.0,0.0,M,0.0,M,,*60
$GPGSA,A,3,01,02,03,04,05,06,07,08,09,10,11,12,1.0,1.0,1.0*30
$GPRMC,044037.376,A,5609.997,N,09258.289,E,019.4,017.6,250620,000.0,W*7B
$GPGGA,044038.376,5610.002,N,09258.291,E,1,12,1.0,0.0,M,0.0,M,,*6B
$GPGSA,A,3,01,02,03,04,05,06,07,08,09,10,11,12,1.0,1.0,1.0*30
$GPRMC,044038.376,A,5610.002,N,09258.291,E,019.4,017.6,250620,000.0,W*70
$GPGGA,044039.376,5610.007,N,09258.293,E,1,12,1.0,0.0,M,0.0,M,,*6D
$GPGSA,A,3,01,02,03,04,05,06,07,08,09,10,11,12,1.0,1.0,1.0*30
$GPRMC,044039.376,A,5610.007,N,09258.293,E,019.4,017.6,250620,000.0,W*76
$GPGGA,044040.376,5610.013,N,09258.294,E,1,12,1.0,0.0,M,0.0,M,,*61
$GPGSA,A,3,01,02,03,04,05,06,07,08,09,10,11,12,1.0,1.0,1.0*30
$GPRMC,044040.376,A,5610.013,N,09258.294,E,019.4,017.6,250620,000.0,W*7A
$GPGGA,044041.376,5610.018,N,09258.296,E,1,12,1.0,0.0,M,0.0,M,,*69
$GPGSA,A,3,01,02,03,04,05,06,07,08,09,10,11,12,1.0,1.0,1.0*30
$GPRMC,044041.376,A,5610.018,N,09258.296,E,019.4,017.6,250620,000.0,W*72
$GPGGA,044042.376,5610.023,N,09258.298,E,1,12,1.0,0.0,M,0.0,M,,*6C
$GPGSA,A,3,01,02,03,04,05,06,07,08,09,10,11,12,1.0,1.0,1.0*30
$GPRMC,044042.376,A,5610.023,N,09258.298,E,019.4,017.6,250620,000.0,W*77
$GPGGA,044043.376,5610.029,N,09258.299,E,1,12,1.0,0.0,M,0.0,M,,*66
$GPGSA,A,3,01,02,03,04,05,06,07,08,09,10,11,12,1.0,1.0,1.0*30
$GPRMC,044043.376,A,5610.029,N,09258.299,E,019.4,017.6,250620,000.0,W*7D
$GPGGA,044044.376,5610.034,N,09258.301,E,1,12,1.0,0.0,M,0.0,M,,*6D
$GPGSA,A,3,01,02,03,04,05,06,07,08,09,10,11,12,1.0,1.0,1.0*30
$GPRMC,044044.376,A,5610.034,N,09258.301,E,019.4,017.6,250620,000.0,W*76
$GPGGA,044045.376,5610.039,N,09258.303,E,1,12,1.0,0.0,M,0.0,M,,*63
$GPGSA,A,3,01,02,03,04,05,06,07,08,09,10,11,12,1.0,1.0,1.0*30
$GPRMC,044045.376,A,5610.039,N,09258.303,E,019.4,017.6,250620,000.0,W*78
$GPGGA,044046.376,5610.044,N,09258.304,E,1,12,1.0,0.0,M,0.0,M,,*6D
$GPGSA,A,3,01,02,03,04,05,06,07,08,09,10,11,12,1.0,1.0,1.0*30
$GPRMC,044046.376,A,5610.044,N,09258.304,E,019.4,017.6,250620,000.0,W*76
$GPGGA,044047.376,5610.050,N,09258.306,E,1,12,1.0,0.0,M,0.0,M,,*6B
$GPGSA,A,3,01,02,03,04,05,06,07,08,09,10,11,12,1.0,1.0,1.0*30
$GPRMC,044047.376,A,5610.050,N,09258.306,E,019.4,017.6,250620,000.0,W*70
$GPGGA,044048.376,5610.055,N,09258.308,E,1,12,1.0,0.0,M,0.0,M,,*6F
$GPGSA,A,3,01,02,03,04,05,06,07,08,09,10,11,12,1.0,1.0,1.0*30
$GPRMC,044048.376,A,5610.055,N,09258.308,E,019.4,017.6,250620,000.0,W*74
$GPGGA,044049.376,5610.060,N,09258.310,E,1,12,1.0,0.0,M,0.0,M,,*61
$GPGSA,A,3,01,02,03,04,05,06,07,08,09,10,11,12,1.0,1.0,1.0*30
$GPRMC,044049.376,A,5610.060,N,09258.310,E,019.4,017.6,250620,000.0,W*7A
$GPGGA,044050.376,5610.066,N,09258.311,E,1,12,1.0,0.0,M,0.0,M,,*6E
$GPGSA,A,3,01,02,03,04,05,06,07,08,09,10,11,12,1.0,1.0,1.0*30
$GPRMC,044050.376,A,5610.066,N,09258.311,E,019.4,017.6,250620,000.0,W*75
$GPGGA,044051.376,5610.071,N,09258.313,E,1,12,1.0,0.0,M,0.0,M,,*6B
$GPGSA,A,3,01,02,03,04,05,06,07,08,09,10,11,12,1.0,1.0,1.0*30
$GPRMC,044051.376,A,5610.071,N,09258.313,E,019.4,017.6,250620,000.0,W*70
$GPGGA,044052.376,5610.076,N,09258.315,E,1,12,1.0,0.0,M,0.0,M,,*69
$GPGSA,A,3,01,02,03,04,05,06,07,08,09,10,11,12,1.0,1.0,1.0*30
$GPRMC,044052.376,A,5610.076,N,09258.315,E,019.4,017.6,250620,000.0,W*72
$GPGGA,044053.376,5610.082,N,09258.316,E,1,12,1.0,0.0,M,0.0,M,,*60
$GPGSA,A,3,01,02,03,04,05,06,07,08,09,10,11,12,1.0,1.0,1.0*30
$GPRMC,044053.376,A,5610.082,N,09258.316,E,019.4,017.6,250620,000.0,W*7B
$GPGGA,044054.376,5610.087,N,09258.318,E,1,12,1.0,0.0,M,0.0,M,,*6C
$GPGSA,A,3,01,02,03,04,05,06,07,08,09,10,11,12,1.0,1.0,1.0*30
$GPRMC,044054.376,A,5610.087,N,09258.318,E,019.4,017.6,250620,000.0,W*77
$GPGGA,044055.376,5610.092,N,09258.320,E,1,12,1.0,0.0,M,0.0,M,,*62
$GPGSA,A,3,01,02,03,04,05,06,07,08,09,10,11,12,1.0,1.0,1.0*30
$GPRMC,044055.376,A,5610.092,N,09258.320,E,019.4,017.6,250620,000.0,W*79
$GPGGA,044056.376,5610.098,N,09258.321,E,1,12,1.0,0.0,M,0.0,M,,*6A
$GPGSA,A,3,01,02,03,04,05,06,07,08,09,10,11,12,1.0,1.0,1.0*30
$GPRMC,044056.376,A,5610.098,N,09258.321,E,019.4,017.6,250620,000.0,W*71
$GPGGA,044057.376,5610.103,N,09258.323,E,1,12,1.0,0.0,M,0.0,M,,*6A
$GPGSA,A,3,01,02,03,04,05,06,07,08,09,10,11,12,1.0,1.0,1.0*30
$GPRMC,044057.376,A,5610.103,N,09258.323,E,019.4,017.6,250620,000.0,W*71
$GPGGA,044058.376,5610.108,N,09258.325,E,1,12,1.0,0.0,M,0.0,M,,*68
$GPGSA,A,3,01,02,03,04,05,06,07,08,09,10,11,12,1.0,1.0,1.0*30
$GPRMC,044058.376,A,5610.108,N,09258.325,E,019.4,017.6,250620,000.0,W*73
$GPGGA,044059.376,5610.114,N,09258.326,E,1,12,1.0,0.0,M,0.0,M,,*67
$GPGSA,A,3,01,02,03,04,05,06,07,08,09,10,11,12,1.0,1.0,1.0*30
$GPRMC,044059.376,A,5610.114,N,09258.326,E,019.4,017.6,250620,000.0,W*7C
$GPGGA,044100.376,5610.119,N,09258.328,E,1,12,1.0,0.0,M,0.0,M,,*69
$GPGSA,A,3,01,02,03,04,05,06,07,08,09,10,11,12,1.0,1.0,1.0*30
$GPRMC,044100.376,A,5610.119,N,09258.328,E,019.4,017.6,250620,000.0,W*72
$GPGGA,044101.376,5610.124,N,09258.330,E,1,12,1.0,0.0,M,0.0,M,,*6F
$GPGSA,A,3,01,02,03,04,05,06,07,08,09,10,11,12,1.0,1.0,1.0*30
$GPRMC,044101.376,A,5610.124,N,09258.330,E,019.4,017.6,250620,000.0,W*74
$GPGGA,044102.376,5610.129,N,09258.332,E,1,12,1.0,0.0,M,0.0,M,,*63
$GPGSA,A,3,01,02,03,04,05,06,07,08,09,10,11,12,1.0,1.0,1.0*30
$GPRMC,044102.376,A,5610.129,N,09258.332,E,019.4,017.6,250620,000.0,W*78
$GPGGA,044103.376,5610.135,N,09258.333,E,1,12,1.0,0.0,M,0.0,M,,*6E
$GPGSA,A,3,01,02,03,04,05,06,07,08,09,10,11,12,1.0,1.0,1.0*30
$GPRMC,044103.376,A,5610.135,N,09258.333,E,019.4,017.6,250620,000.0,W*75
$GPGGA,044104.376,5610.140,N,09258.335,E,1,12,1.0,0.0,M,0.0,M,,*6D
$GPGSA,A,3,01,02,03,04,05,06,07,08,09,10,11,12,1.0,1.0,1.0*30
$GPRMC,044104.376,A,5610.140,N,09258.335,E,019.4,017.6,250620,000.0,W*76
$GPGGA,044105.376,5610.145,N,09258.337,E,1,12,1.0,0.0,M,0.0,M,,*6B
$GPGSA,A,3,01,02,03,04,05,06,07,08,09,10,11,12,1.0,1.0,1.0*30
$GPRMC,044105.376,A,5610.145,N,09258.337,E,019.4,017.6,250620,000.0,W*70
$GPGGA,044106.376,5610.151,N,09258.338,E,1,12,1.0,0.0,M,0.0,M,,*62
$GPGSA,A,3,01,02,03,04,05,06,07,08,09,10,11,12,1.0,1.0,1.0*30
$GPRMC,044106.376,A,5610.151,N,09258.338,E,019.4,017.6,250620,000.0,W*79
$GPGGA,044107.376,5610.156,N,09258.340,E,1,12,1.0,0.0,M,0.0,M,,*6B
$GPGSA,A,3,01,02,03,04,05,06,07,08,09,10,11,12,1.0,1.0,1.0*30
$GPRMC,044107.376,A,5610.156,N,09258.340,E,019.4,017.6,250620,000.0,W*70
$GPGGA,044108.376,5610.161,N,09258.342,E,1,12,1.0,0.0,M,0.0,M,,*62
$GPGSA,A,3,01,02,03,04,05,06,07,08,09,10,11,12,1.0,1.0,1.0*30
$GPRMC,044108.376,A,5610.161,N,09258.342,E,019.4,017.6,250620,000.0,W*79
$GPGGA,044109.376,5610.167,N,09258.343,E,1,12,1.0,0.0,M,0.0,M,,*64
$GPGSA,A,3,01,02,03,04,05,06,07,08,09,10,11,12,1.0,1.0,1.0*30
$GPRMC,044109.376,A,5610.167,N,09258.343,E,019.4,017.6,250620,000.0,W*7F
$GPGGA,044110.376,5610.172,N,09258.345,E,1,12,1.0,0.0,M,0.0,M,,*6E
$GPGSA,A,3,01,02,03,04,05,06,07,08,09,10,11,12,1.0,1.0,1.0*30
$GPRMC,044110.376,A,5610.172,N,09258.345,E,019.4,017.6,250620,000.0,W*75
$GPGGA,044111.376,5610.177,N,09258.347,E,1,12,1.0,0.0,M,0.0,M,,*68
$GPGSA,A,3,01,02,03,04,05,06,07,08,09,10,11,12,1.0,1.0,1.0*30
$GPRMC,044111.376,A,5610.177,N,09258.347,E,019.4,017.6,250620,000.0,W*73
$GPGGA,044112.376,5610.183,N,09258.348,E,1,12,1.0,0.0,M,0.0,M,,*6F
$GPGSA,A,3,01,02,03,04,05,06,07,08,09,10,11,12,1.0,1.0,1.0*30
$GPRMC,044112.376,A,5610.183,N,09258.348,E,019.4,017.6,250620,000.0,W*74
$GPGGA,044113.376,5610.188,N,09258.350,E,1,12,1.0,0.0,M,0.0,M,,*6C
$GPGSA,A,3,01,02,03,04,05,06,07,08,09,10,11,12,1.0,1.0,1.0*30
$GPRMC,044113.376,A,5610.188,N,09258.350,E,019.4,017.6,250620,000.0,W*77
$GPGGA,044114.376,5610.193,N,09258.352,E,1,12,1.0,0.0,M,0.0,M,,*63
$GPGSA,A,3,01,02,03,04,05,06,07,08,09,10,11,12,1.0,1.0,1.0*30
$GPRMC,044114.376,A,5610.193,N,09258.352,E,019.4,017.6,250620,000.0,W*78
$GPGGA,044115.376,5610.199,N,09258.354,E,1,12,1.0,0.0,M,0.0,M,,*6E
$GPGSA,A,3,01,02,03,04,05,06,07,08,09,10,11,12,1.0,1.0,1.0*30
$GPRMC,044115.376,A,5610.199,N,09258.354,E,019.4,017.6,250620,000.0,W*75
$GPGGA,044116.376,5610.204,N,09258.355,E,1,12,1.0,0.0,M,0.0,M,,*6B
$GPGSA,A,3,01,02,03,04,05,06,07,08,09,10,11,12,1.0,1.0,1.0*30
$GPRMC,044116.376,A,5610.204,N,09258.355,E,019.4,017.6,250620,000.0,W*70
$GPGGA,044117.376,5610.209,N,09258.357,E,1,12,1.0,0.0,M,0.0,M,,*65
$GPGSA,A,3,01,02,03,04,05,06,07,08,09,10,11,12,1.0,1.0,1.0*30
$GPRMC,044117.376,A,5610.209,N,09258.357,E,019.4,017.6,250620,000.0,W*7E
$GPGGA,044118.376,5610.215,N,09258.359,E,1,12,1.0,0.0,M,0.0,M,,*69
$GPGSA,A,3,01,02,03,04,05,06,07,08,09,10,11,12,1.0,1.0,1.0*30
$GPRMC,044118.376,A,5610.215,N,09258.359,E,019.4,017.6,250620,000.0,W*72
$GPGGA,044119.376,5610.220,N,09258.360,E,1,12,1.0,0.0,M,0.0,M,,*64
$GPGSA,A,3,01,02,03,04,05,06,07,08,09,10,11,12,1.0,1.0,1.0*30
$GPRMC,044119.376,A,5610.220,N,09258.360,E,019.4,017.6,250620,000.0,W*7F
$GPGGA,044120.376,5610.225,N,09258.362,E,1,12,1.0,0.0,M,0.0,M,,*69
$GPGSA,A,3,01,02,03,04,05,06,07,08,09,10,11,12,1.0,1.0,1.0*30
$GPRMC,044120.376,A,5610.225,N,09258.362,E,019.4,017.6,250620,000.0,W*72
$GPGGA,044121.376,5610.230,N,09258.364,E,1,12,1.0,0.0,M,0.0,M,,*6A
$GPGSA,A,3,01,02,03,04,05,06,07,08,09,10,11,12,1.0,1.0,1.0*30
$GPRMC,044121.376,A,5610.230,N,09258.364,E,019.4,017.6,250620,000.0,W*71
$GPGGA,044122.376,5610.236,N,09258.365,E,1,12,1.0,0.0,M,0.0,M,,*6E
$GPGSA,A,3,01,02,03,04,05,06,07,08,09,10,11,12,1.0,1.0,1.0*30
$GPRMC,044122.376,A,5610.236,N,09258.365,E,019.4,017.6,250620,000.0,W*75
$GPGGA,044123.376,5610.241,N,09258.367,E,1,12,1.0,0.0,M,0.0,M,,*6D
$GPGSA,A,3,01,02,03,04,05,06,07,08,09,10,11,12,1.0,1.0,1.0*30
$GPRMC,044123.376,A,5610.241,N,09258.367,E,019.4,017.6,250620,000.0,W*76
$GPGGA,044124.376,5610.246,N,09258.369,E,1,12,1.0,0.0,M,0.0,M,,*63
$GPGSA,A,3,01,02,03,04,05,06,07,08,09,10,11,12,1.0,1.0,1.0*30
$GPRMC,044124.376,A,5610.246,N,09258.369,E,019.4,017.6,250620,000.0,W*78
$GPGGA,044125.376,5610.252,N,09258.370,E,1,12,1.0,0.0,M,0.0,M,,*6F
$GPGSA,A,3,01,02,03,04,05,06,07,08,09,10,11,12,1.0,1.0,1.0*30
$GPRMC,044125.376,A,5610.252,N,09258.370,E,019.4,017.6,250620,000.0,W*74
$GPGGA,044126.376,5610.257,N,09258.372,E,1,12,1.0,0.0,M,0.0,M,,*6B
$GPGSA,A,3,01,02,03,04,05,06,07,08,09,10,11,12,1.0,1.0,1.0*30
$GPRMC,044126.376,A,5610.257,N,09258.372,E,019.4,017.6,250620,000.0,W*70
$GPGGA,044127.376,5610.262,N,09258.374,E,1,12,1.0,0.0,M,0.0,M,,*6A
$GPGSA,A,3,01,02,03,04,05,06,07,08,09,10,11,12,1.0,1.0,1.0*30
$GPRMC,044127.376,A,5610.262,N,09258.374,E,019.4,017.6,250620,000.0,W*71
$GPGGA,044128.376,5610.268,N,09258.376,E,1,12,1.0,0.0,M,0.0,M,,*6D
$GPGSA,A,3,01,02,03,04,05,06,07,08,09,10,11,12,1.0,1.0,1.0*30
$GPRMC,044128.376,A,5610.268,N,09258.376,E,019.4,017.6,250620,000.0,W*76
$GPGGA,044129.376,5610.273,N,09258.377,E,1,12,1.0,0.0,M,0.0,M,,*67
$GPGSA,A,3,01,02,03,04,05,06,07,08,09,10,11,12,1.0,1.0,1.0*30
$GPRMC,044129.376,A,5610.273,N,09258.377,E,019.4,017.6,250620,000.0,W*7C
$GPGGA,044130.376,5610.278,N,09258.379,E,1,12,1.0,0.0,M,0.0,M,,*6A
$GPGSA,A,3,01,02,03,04,05,06,07,08,09,10,11,12,1.0,1.0,1.0*30
$GPRMC,044130.376,A,5610.278,N,09258.379,E,019.4,017.6,250620,000.0,W*71
$GPGGA,044131.376,5610.284,N,09258.381,E,1,12,1.0,0.0,M,0.0,M,,*6F
$GPGSA,A,3,01,02,03,04,05,06,07,08,09,10,11,12,1.0,1.0,1.0*30
$GPRMC,044131.376,A,5610.284,N,09258.381,E,019.4,017.6,250620,000.0,W*74
$GPGGA,044132.376,5610.289,N,09258.382,E,1,12,1.0,0.0,M,0.0,M,,*62
$GPGSA,A,3,01,02,03,04,05,06,07,08,09,10,11,12,1.0,1.0,1.0*30
$GPRMC,044132.376,A,5610.289,N,09258.382,E,019.4,017.6,250620,000.0,W*79
$GPGGA,044133.376,5610.294,N,09258.384,E,1,12,1.0,0.0,M,0.0,M,,*69
$GPGSA,A,3,01,02,03,04,05,06,07,08,09,10,11,12,1.0,1.0,1.0*30
$GPRMC,044133.376,A,5610.294,N,09258.384,E,019.4,017.6,250620,000.0,W*72
$GPGGA,044134.376,5610.300,N,09258.386,E,1,12,1.0,0.0,M,0.0,M,,*60
$GPGSA,A,3,01,02,03,04,05,06,07,08,09,10,11,12,1.0,1.0,1.0*30
$GPRMC,044134.376,A,5610.300,N,09258.386,E,019.4,017.6,250620,000.0,W*7B
$GPGGA,044135.376,5610.305,N,09258.387,E,1,12,1.0,0.0,M,0.0,M,,*65
$GPGSA,A,3,01,02,03,04,05,06,07,08,09,10,11,12,1.0,1.0,1.0*30
$GPRMC,044135.376,A,5610.305,N,09258.387,E,019.4,017.6,250620,000.0,W*7E
$GPGGA,044136.376,5610.310,N,09258.389,E,1,12,1.0,0.0,M,0.0,M,,*6C
$GPGSA,A,3,01,02,03,04,05,06,07,08,09,10,11,12,1.0,1.0,1.0*30
$GPRMC,044136.376,A,5610.310,N,09258.389,E,019.4,017.6,250620,000.0,W*77
$GPGGA,044137.376,5610.315,N,09258.391,E,1,12,1.0,0.0,M,0.0,M,,*61
$GPGSA,A,3,01,02,03,04,05,06,07,08,09,10,11,12,1.0,1.0,1.0*30
$GPRMC,044137.376,A,5610.315,N,09258.391,E,019.4,017.6,250620,000.0,W*7A
